{
    "type": "FeatureCollection",
    "features": [
        {
            "geometry": {
                "coordinates": [
                    -74.0059413,
                    40.7127837
                ],
                "type": "Point"
            },
            "properties": {
                "marker-color": "#808000",
                "name": "New York",
                "draw_type": "circle",
                "source": "city0"
            },
            "type": "Feature"
        },
        {
            "geometry": {
                "coordinates": [
                    -118.2436849,
                    34.0522342
                ],
                "type": "Point"
            },
            "properties": {
                "marker-color": "#1e4d2b",
                "name": "Los Angeles",
                "draw_type": "circle",
                "source": "city1"
            },
            "type": "Feature"
        },
        {
            "geometry": {
                "coordinates": [
                    -87.6297982,
                    41.8781136
                ],
                "type": "Point"
            },
            "properties": {
                "marker-color": "#00a693",
                "name": "Chicago",
                "draw_type": "circle",
                "source": "city2"
            },
            "type": "Feature"
        },
        {
            "geometry": {
                "coordinates": [
                    -95.3698028,
                    29.7604267
                ],
                "type": "Point"
            },
            "properties": {
                "marker-color": "#cccaa8",
                "name": "Houston",
                "draw_type": "circle",
                "source": "city3"
            },
            "type": "Feature"
        },
        {
            "geometry": {
                "coordinates": [
                    -75.1652215,
                    39.9525839
                ],
                "type": "Point"
            },
            "properties": {
                "marker-color": "#f07427",
                "name": "Philadelphia",
                "draw_type": "circle",
                "source": "city4"
            },
            "type": "Feature"
        },
        {
            "geometry": {
                "coordinates": [
                    -112.0740373,
                    33.4483771
                ],
                "type": "Point"
            },
            "properties": {
                "marker-color": "#e4d00a",
                "name": "Phoenix",
                "draw_type": "circle",
                "source": "city5"
            },
            "type": "Feature"
        },
        {
            "geometry": {
                "coordinates": [
                    -98.49362819999999,
                    29.4241219
                ],
                "type": "Point"
            },
            "properties": {
                "marker-color": "#b6d1ea",
                "name": "San Antonio",
                "draw_type": "circle",
                "source": "city6"
            },
            "type": "Feature"
        },
        {
            "geometry": {
                "coordinates": [
                    -117.1610838,
                    32.715738
                ],
                "type": "Point"
            },
            "properties": {
                "marker-color": "#cccaa8",
                "name": "San Diego",
                "draw_type": "circle",
                "source": "city7"
            },
            "type": "Feature"
        },
        {
            "geometry": {
                "coordinates": [
                    -96.79698789999999,
                    32.7766642
                ],
                "type": "Point"
            },
            "properties": {
                "marker-color": "#c0c0c0",
                "name": "Dallas",
                "draw_type": "circle",
                "source": "city8"
            },
            "type": "Feature"
        },
        {
            "geometry": {
                "coordinates": [
                    -121.8863286,
                    37.3382082
                ],
                "type": "Point"
            },
            "properties": {
                "marker-color": "#0b0b0b",
                "name": "San Jose",
                "draw_type": "circle",
                "source": "city9"
            },
            "type": "Feature"
        },
        {
            "geometry": {
                "coordinates": [
                    -97.7430608,
                    30.267153
                ],
                "type": "Point"
            },
            "properties": {
                "marker-color": "#06a189",
                "name": "Austin",
                "draw_type": "circle",
                "source": "city10"
            },
            "type": "Feature"
        },
        {
            "geometry": {
                "coordinates": [
                    -86.158068,
                    39.768403
                ],
                "type": "Point"
            },
            "properties": {
                "marker-color": "#fef4f8",
                "name": "Indianapolis",
                "draw_type": "circle",
                "source": "city11"
            },
            "type": "Feature"
        },
        {
            "geometry": {
                "coordinates": [
                    -81.65565099999999,
                    30.3321838
                ],
                "type": "Point"
            },
            "properties": {
                "marker-color": "#a99a86",
                "name": "Jacksonville",
                "draw_type": "circle",
                "source": "city12"
            },
            "type": "Feature"
        },
        {
            "geometry": {
                "coordinates": [
                    -122.4194155,
                    37.7749295
                ],
                "type": "Point"
            },
            "properties": {
                "marker-color": "#73c2fb",
                "name": "San Francisco",
                "draw_type": "circle",
                "source": "city13"
            },
            "type": "Feature"
        },
        {
            "geometry": {
                "coordinates": [
                    -82.99879419999999,
                    39.9611755
                ],
                "type": "Point"
            },
            "properties": {
                "marker-color": "#0000ff",
                "name": "Columbus",
                "draw_type": "circle",
                "source": "city14"
            },
            "type": "Feature"
        },
        {
            "geometry": {
                "coordinates": [
                    -80.8431267,
                    35.2270869
                ],
                "type": "Point"
            },
            "properties": {
                "marker-color": "#353542",
                "name": "Charlotte",
                "draw_type": "circle",
                "source": "city15"
            },
            "type": "Feature"
        },
        {
            "geometry": {
                "coordinates": [
                    -97.3307658,
                    32.7554883
                ],
                "type": "Point"
            },
            "properties": {
                "marker-color": "#adff2f",
                "name": "Fort Worth",
                "draw_type": "circle",
                "source": "city16"
            },
            "type": "Feature"
        },
        {
            "geometry": {
                "coordinates": [
                    -83.0457538,
                    42.331427
                ],
                "type": "Point"
            },
            "properties": {
                "marker-color": "#f3e5ab",
                "name": "Detroit",
                "draw_type": "circle",
                "source": "city17"
            },
            "type": "Feature"
        },
        {
            "geometry": {
                "coordinates": [
                    -106.4424559,
                    31.7775757
                ],
                "type": "Point"
            },
            "properties": {
                "marker-color": "#0000cd",
                "name": "El Paso",
                "draw_type": "circle",
                "source": "city18"
            },
            "type": "Feature"
        },
        {
            "geometry": {
                "coordinates": [
                    -90.0489801,
                    35.1495343
                ],
                "type": "Point"
            },
            "properties": {
                "marker-color": "#383533",
                "name": "Memphis",
                "draw_type": "circle",
                "source": "city19"
            },
            "type": "Feature"
        },
        {
            "geometry": {
                "coordinates": [
                    -122.3320708,
                    47.6062095
                ],
                "type": "Point"
            },
            "properties": {
                "marker-color": "#dde26a",
                "name": "Seattle",
                "draw_type": "circle",
                "source": "city20"
            },
            "type": "Feature"
        },
        {
            "geometry": {
                "coordinates": [
                    -104.990251,
                    39.7392358
                ],
                "type": "Point"
            },
            "properties": {
                "marker-color": "#5b92e5",
                "name": "Denver",
                "draw_type": "circle",
                "source": "city21"
            },
            "type": "Feature"
        },
        {
            "geometry": {
                "coordinates": [
                    -77.0368707,
                    38.9071923
                ],
                "type": "Point"
            },
            "properties": {
                "marker-color": "#d5d195",
                "name": "Washington",
                "draw_type": "circle",
                "source": "city22"
            },
            "type": "Feature"
        },
        {
            "geometry": {
                "coordinates": [
                    -71.0588801,
                    42.3600825
                ],
                "type": "Point"
            },
            "properties": {
                "marker-color": "#007ba7",
                "name": "Boston",
                "draw_type": "circle",
                "source": "city23"
            },
            "type": "Feature"
        },
        {
            "geometry": {
                "coordinates": [
                    -86.7816016,
                    36.1626638
                ],
                "type": "Point"
            },
            "properties": {
                "marker-color": "#da9100",
                "name": "Nashville-Davidson",
                "draw_type": "circle",
                "source": "city24"
            },
            "type": "Feature"
        },
        {
            "geometry": {
                "coordinates": [
                    -76.6121893,
                    39.2903848
                ],
                "type": "Point"
            },
            "properties": {
                "marker-color": "#eae8d4",
                "name": "Baltimore",
                "draw_type": "circle",
                "source": "city25"
            },
            "type": "Feature"
        },
        {
            "geometry": {
                "coordinates": [
                    -97.5164276,
                    35.4675602
                ],
                "type": "Point"
            },
            "properties": {
                "marker-color": "#ffc901",
                "name": "Oklahoma City",
                "draw_type": "circle",
                "source": "city26"
            },
            "type": "Feature"
        },
        {
            "geometry": {
                "coordinates": [
                    -85.7584557,
                    38.2526647
                ],
                "type": "Point"
            },
            "properties": {
                "marker-color": "#b76e79",
                "name": "Louisville/Jefferson County",
                "draw_type": "circle",
                "source": "city27"
            },
            "type": "Feature"
        },
        {
            "geometry": {
                "coordinates": [
                    -122.6764816,
                    45.5230622
                ],
                "type": "Point"
            },
            "properties": {
                "marker-color": "#088370",
                "name": "Portland",
                "draw_type": "circle",
                "source": "city28"
            },
            "type": "Feature"
        },
        {
            "geometry": {
                "coordinates": [
                    -115.1398296,
                    36.1699412
                ],
                "type": "Point"
            },
            "properties": {
                "marker-color": "#8b9c90",
                "name": "Las Vegas",
                "draw_type": "circle",
                "source": "city29"
            },
            "type": "Feature"
        },
        {
            "geometry": {
                "coordinates": [
                    -87.9064736,
                    43.0389025
                ],
                "type": "Point"
            },
            "properties": {
                "marker-color": "#aba196",
                "name": "Milwaukee",
                "draw_type": "circle",
                "source": "city30"
            },
            "type": "Feature"
        },
        {
            "geometry": {
                "coordinates": [
                    -106.6055534,
                    35.0853336
                ],
                "type": "Point"
            },
            "properties": {
                "marker-color": "#66ddaa",
                "name": "Albuquerque",
                "draw_type": "circle",
                "source": "city31"
            },
            "type": "Feature"
        },
        {
            "geometry": {
                "coordinates": [
                    -110.926479,
                    32.2217429
                ],
                "type": "Point"
            },
            "properties": {
                "marker-color": "#bb8983",
                "name": "Tucson",
                "draw_type": "circle",
                "source": "city32"
            },
            "type": "Feature"
        },
        {
            "geometry": {
                "coordinates": [
                    -119.7725868,
                    36.7468422
                ],
                "type": "Point"
            },
            "properties": {
                "marker-color": "#5b3013",
                "name": "Fresno",
                "draw_type": "circle",
                "source": "city33"
            },
            "type": "Feature"
        },
        {
            "geometry": {
                "coordinates": [
                    -121.4943996,
                    38.5815719
                ],
                "type": "Point"
            },
            "properties": {
                "marker-color": "#286acd",
                "name": "Sacramento",
                "draw_type": "circle",
                "source": "city34"
            },
            "type": "Feature"
        },
        {
            "geometry": {
                "coordinates": [
                    -118.1937395,
                    33.7700504
                ],
                "type": "Point"
            },
            "properties": {
                "marker-color": "#e9f8ed",
                "name": "Long Beach",
                "draw_type": "circle",
                "source": "city35"
            },
            "type": "Feature"
        },
        {
            "geometry": {
                "coordinates": [
                    -94.5785667,
                    39.0997265
                ],
                "type": "Point"
            },
            "properties": {
                "marker-color": "#915f6d",
                "name": "Kansas City",
                "draw_type": "circle",
                "source": "city36"
            },
            "type": "Feature"
        },
        {
            "geometry": {
                "coordinates": [
                    -111.8314724,
                    33.4151843
                ],
                "type": "Point"
            },
            "properties": {
                "marker-color": "#26056a",
                "name": "Mesa",
                "draw_type": "circle",
                "source": "city37"
            },
            "type": "Feature"
        },
        {
            "geometry": {
                "coordinates": [
                    -75.97798499999999,
                    36.8529263
                ],
                "type": "Point"
            },
            "properties": {
                "marker-color": "#cba135",
                "name": "Virginia Beach",
                "draw_type": "circle",
                "source": "city38"
            },
            "type": "Feature"
        },
        {
            "geometry": {
                "coordinates": [
                    -84.3879824,
                    33.7489954
                ],
                "type": "Point"
            },
            "properties": {
                "marker-color": "#ff9933",
                "name": "Atlanta",
                "draw_type": "circle",
                "source": "city39"
            },
            "type": "Feature"
        },
        {
            "geometry": {
                "coordinates": [
                    -104.8213634,
                    38.8338816
                ],
                "type": "Point"
            },
            "properties": {
                "marker-color": "#5f6672",
                "name": "Colorado Springs",
                "draw_type": "circle",
                "source": "city40"
            },
            "type": "Feature"
        },
        {
            "geometry": {
                "coordinates": [
                    -95.99798829999999,
                    41.2523634
                ],
                "type": "Point"
            },
            "properties": {
                "marker-color": "#0b6207",
                "name": "Omaha",
                "draw_type": "circle",
                "source": "city41"
            },
            "type": "Feature"
        },
        {
            "geometry": {
                "coordinates": [
                    -78.6381787,
                    35.7795897
                ],
                "type": "Point"
            },
            "properties": {
                "marker-color": "#f3fb62",
                "name": "Raleigh",
                "draw_type": "circle",
                "source": "city42"
            },
            "type": "Feature"
        },
        {
            "geometry": {
                "coordinates": [
                    -80.1917902,
                    25.7616798
                ],
                "type": "Point"
            },
            "properties": {
                "marker-color": "#aec6cf",
                "name": "Miami",
                "draw_type": "circle",
                "source": "city43"
            },
            "type": "Feature"
        },
        {
            "geometry": {
                "coordinates": [
                    -122.2711137,
                    37.8043637
                ],
                "type": "Point"
            },
            "properties": {
                "marker-color": "#a3e3ed",
                "name": "Oakland",
                "draw_type": "circle",
                "source": "city44"
            },
            "type": "Feature"
        },
        {
            "geometry": {
                "coordinates": [
                    -93.2650108,
                    44.977753
                ],
                "type": "Point"
            },
            "properties": {
                "marker-color": "#9c51b6",
                "name": "Minneapolis",
                "draw_type": "circle",
                "source": "city45"
            },
            "type": "Feature"
        },
        {
            "geometry": {
                "coordinates": [
                    -95.99277500000001,
                    36.1539816
                ],
                "type": "Point"
            },
            "properties": {
                "marker-color": "#d7c498",
                "name": "Tulsa",
                "draw_type": "circle",
                "source": "city46"
            },
            "type": "Feature"
        },
        {
            "geometry": {
                "coordinates": [
                    -81.6943605,
                    41.49932
                ],
                "type": "Point"
            },
            "properties": {
                "marker-color": "#056608",
                "name": "Cleveland",
                "draw_type": "circle",
                "source": "city47"
            },
            "type": "Feature"
        },
        {
            "geometry": {
                "coordinates": [
                    -97.336111,
                    37.688889
                ],
                "type": "Point"
            },
            "properties": {
                "marker-color": "#5f8a8b",
                "name": "Wichita",
                "draw_type": "circle",
                "source": "city48"
            },
            "type": "Feature"
        },
        {
            "geometry": {
                "coordinates": [
                    -97.10806559999999,
                    32.735687
                ],
                "type": "Point"
            },
            "properties": {
                "marker-color": "#f5ffbe",
                "name": "Arlington",
                "draw_type": "circle",
                "source": "city49"
            },
            "type": "Feature"
        },
        {
            "geometry": {
                "coordinates": [
                    -90.0715323,
                    29.95106579999999
                ],
                "type": "Point"
            },
            "properties": {
                "marker-color": "#02866f",
                "name": "New Orleans",
                "draw_type": "circle",
                "source": "city50"
            },
            "type": "Feature"
        },
        {
            "geometry": {
                "coordinates": [
                    -119.0187125,
                    35.3732921
                ],
                "type": "Point"
            },
            "properties": {
                "marker-color": "#f7faf7",
                "name": "Bakersfield",
                "draw_type": "circle",
                "source": "city51"
            },
            "type": "Feature"
        },
        {
            "geometry": {
                "coordinates": [
                    -82.4571776,
                    27.950575
                ],
                "type": "Point"
            },
            "properties": {
                "marker-color": "#e292c0",
                "name": "Tampa",
                "draw_type": "circle",
                "source": "city52"
            },
            "type": "Feature"
        },
        {
            "geometry": {
                "coordinates": [
                    -104.8319195,
                    39.7294319
                ],
                "type": "Point"
            },
            "properties": {
                "marker-color": "#0c8990",
                "name": "Aurora",
                "draw_type": "circle",
                "source": "city53"
            },
            "type": "Feature"
        },
        {
            "geometry": {
                "coordinates": [
                    -117.9145036,
                    33.8352932
                ],
                "type": "Point"
            },
            "properties": {
                "marker-color": "#1ca9c9",
                "name": "Anaheim",
                "draw_type": "circle",
                "source": "city54"
            },
            "type": "Feature"
        },
        {
            "geometry": {
                "coordinates": [
                    -117.8678338,
                    33.7455731
                ],
                "type": "Point"
            },
            "properties": {
                "marker-color": "#433120",
                "name": "Santa Ana",
                "draw_type": "circle",
                "source": "city55"
            },
            "type": "Feature"
        },
        {
            "geometry": {
                "coordinates": [
                    -90.19940419999999,
                    38.6270025
                ],
                "type": "Point"
            },
            "properties": {
                "marker-color": "#c9b29b",
                "name": "St. Louis",
                "draw_type": "circle",
                "source": "city56"
            },
            "type": "Feature"
        },
        {
            "geometry": {
                "coordinates": [
                    -117.3961564,
                    33.9533487
                ],
                "type": "Point"
            },
            "properties": {
                "marker-color": "#008000",
                "name": "Riverside",
                "draw_type": "circle",
                "source": "city57"
            },
            "type": "Feature"
        },
        {
            "geometry": {
                "coordinates": [
                    -97.39638099999999,
                    27.8005828
                ],
                "type": "Point"
            },
            "properties": {
                "marker-color": "#c9b35b",
                "name": "Corpus Christi",
                "draw_type": "circle",
                "source": "city58"
            },
            "type": "Feature"
        },
        {
            "geometry": {
                "coordinates": [
                    -84.5037164,
                    38.0405837
                ],
                "type": "Point"
            },
            "properties": {
                "marker-color": "#ee204d",
                "name": "Lexington-Fayette",
                "draw_type": "circle",
                "source": "city59"
            },
            "type": "Feature"
        },
        {
            "geometry": {
                "coordinates": [
                    -79.9958864,
                    40.44062479999999
                ],
                "type": "Point"
            },
            "properties": {
                "marker-color": "#8c5738",
                "name": "Pittsburgh",
                "draw_type": "circle",
                "source": "city60"
            },
            "type": "Feature"
        },
        {
            "geometry": {
                "coordinates": [
                    -121.2907796,
                    37.9577016
                ],
                "type": "Point"
            },
            "properties": {
                "marker-color": "#2f3cb3",
                "name": "Stockton",
                "draw_type": "circle",
                "source": "city61"
            },
            "type": "Feature"
        },
        {
            "geometry": {
                "coordinates": [
                    -84.5120196,
                    39.1031182
                ],
                "type": "Point"
            },
            "properties": {
                "marker-color": "#fed33c",
                "name": "Cincinnati",
                "draw_type": "circle",
                "source": "city62"
            },
            "type": "Feature"
        },
        {
            "geometry": {
                "coordinates": [
                    -93.0899578,
                    44.9537029
                ],
                "type": "Point"
            },
            "properties": {
                "marker-color": "#ffddcf",
                "name": "St. Paul",
                "draw_type": "circle",
                "source": "city63"
            },
            "type": "Feature"
        },
        {
            "geometry": {
                "coordinates": [
                    -83.55521200000001,
                    41.6639383
                ],
                "type": "Point"
            },
            "properties": {
                "marker-color": "#ffeac8",
                "name": "Toledo",
                "draw_type": "circle",
                "source": "city64"
            },
            "type": "Feature"
        },
        {
            "geometry": {
                "coordinates": [
                    -79.7919754,
                    36.0726354
                ],
                "type": "Point"
            },
            "properties": {
                "marker-color": "#fff1d8",
                "name": "Greensboro",
                "draw_type": "circle",
                "source": "city65"
            },
            "type": "Feature"
        },
        {
            "geometry": {
                "coordinates": [
                    -74.1723667,
                    40.735657
                ],
                "type": "Point"
            },
            "properties": {
                "marker-color": "#606e68",
                "name": "Newark",
                "draw_type": "circle",
                "source": "city66"
            },
            "type": "Feature"
        },
        {
            "geometry": {
                "coordinates": [
                    -96.6988856,
                    33.0198431
                ],
                "type": "Point"
            },
            "properties": {
                "marker-color": "#fe4eda",
                "name": "Plano",
                "draw_type": "circle",
                "source": "city67"
            },
            "type": "Feature"
        },
        {
            "geometry": {
                "coordinates": [
                    -114.9817213,
                    36.0395247
                ],
                "type": "Point"
            },
            "properties": {
                "marker-color": "#568203",
                "name": "Henderson",
                "draw_type": "circle",
                "source": "city68"
            },
            "type": "Feature"
        },
        {
            "geometry": {
                "coordinates": [
                    -96.6851982,
                    40.8257625
                ],
                "type": "Point"
            },
            "properties": {
                "marker-color": "#0c7a79",
                "name": "Lincoln",
                "draw_type": "circle",
                "source": "city69"
            },
            "type": "Feature"
        },
        {
            "geometry": {
                "coordinates": [
                    -78.8783689,
                    42.88644679999999
                ],
                "type": "Point"
            },
            "properties": {
                "marker-color": "#f8f99c",
                "name": "Buffalo",
                "draw_type": "circle",
                "source": "city70"
            },
            "type": "Feature"
        },
        {
            "geometry": {
                "coordinates": [
                    -74.0776417,
                    40.72815749999999
                ],
                "type": "Point"
            },
            "properties": {
                "marker-color": "#967bb6",
                "name": "Jersey City",
                "draw_type": "circle",
                "source": "city71"
            },
            "type": "Feature"
        },
        {
            "geometry": {
                "coordinates": [
                    -117.0841955,
                    32.6400541
                ],
                "type": "Point"
            },
            "properties": {
                "marker-color": "#fef8ff",
                "name": "Chula Vista",
                "draw_type": "circle",
                "source": "city72"
            },
            "type": "Feature"
        },
        {
            "geometry": {
                "coordinates": [
                    -85.1393513,
                    41.079273
                ],
                "type": "Point"
            },
            "properties": {
                "marker-color": "#fff9e6",
                "name": "Fort Wayne",
                "draw_type": "circle",
                "source": "city73"
            },
            "type": "Feature"
        },
        {
            "geometry": {
                "coordinates": [
                    -81.3792365,
                    28.5383355
                ],
                "type": "Point"
            },
            "properties": {
                "marker-color": "#004f98",
                "name": "Orlando",
                "draw_type": "circle",
                "source": "city74"
            },
            "type": "Feature"
        },
        {
            "geometry": {
                "coordinates": [
                    -82.64,
                    27.773056
                ],
                "type": "Point"
            },
            "properties": {
                "marker-color": "#43b3ae",
                "name": "St. Petersburg",
                "draw_type": "circle",
                "source": "city75"
            },
            "type": "Feature"
        },
        {
            "geometry": {
                "coordinates": [
                    -111.8412502,
                    33.3061605
                ],
                "type": "Point"
            },
            "properties": {
                "marker-color": "#727b89",
                "name": "Chandler",
                "draw_type": "circle",
                "source": "city76"
            },
            "type": "Feature"
        },
        {
            "geometry": {
                "coordinates": [
                    -99.48032409999999,
                    27.5305671
                ],
                "type": "Point"
            },
            "properties": {
                "marker-color": "#317873",
                "name": "Laredo",
                "draw_type": "circle",
                "source": "city77"
            },
            "type": "Feature"
        },
        {
            "geometry": {
                "coordinates": [
                    -76.28587259999999,
                    36.8507689
                ],
                "type": "Point"
            },
            "properties": {
                "marker-color": "#31728d",
                "name": "Norfolk",
                "draw_type": "circle",
                "source": "city78"
            },
            "type": "Feature"
        },
        {
            "geometry": {
                "coordinates": [
                    -78.898619,
                    35.9940329
                ],
                "type": "Point"
            },
            "properties": {
                "marker-color": "#ff0000",
                "name": "Durham",
                "draw_type": "circle",
                "source": "city79"
            },
            "type": "Feature"
        },
        {
            "geometry": {
                "coordinates": [
                    -89.4012302,
                    43.0730517
                ],
                "type": "Point"
            },
            "properties": {
                "marker-color": "#a7f432",
                "name": "Madison",
                "draw_type": "circle",
                "source": "city80"
            },
            "type": "Feature"
        },
        {
            "geometry": {
                "coordinates": [
                    -101.8551665,
                    33.5778631
                ],
                "type": "Point"
            },
            "properties": {
                "marker-color": "#40291d",
                "name": "Lubbock",
                "draw_type": "circle",
                "source": "city81"
            },
            "type": "Feature"
        },
        {
            "geometry": {
                "coordinates": [
                    -117.7946942,
                    33.6839473
                ],
                "type": "Point"
            },
            "properties": {
                "marker-color": "#f8f4ff",
                "name": "Irvine",
                "draw_type": "circle",
                "source": "city82"
            },
            "type": "Feature"
        },
        {
            "geometry": {
                "coordinates": [
                    -80.244216,
                    36.09985959999999
                ],
                "type": "Point"
            },
            "properties": {
                "marker-color": "#056f57",
                "name": "Winston-Salem",
                "draw_type": "circle",
                "source": "city83"
            },
            "type": "Feature"
        },
        {
            "geometry": {
                "coordinates": [
                    -112.1859866,
                    33.5386523
                ],
                "type": "Point"
            },
            "properties": {
                "marker-color": "#cb8fa9",
                "name": "Glendale",
                "draw_type": "circle",
                "source": "city84"
            },
            "type": "Feature"
        },
        {
            "geometry": {
                "coordinates": [
                    -96.63888329999999,
                    32.912624
                ],
                "type": "Point"
            },
            "properties": {
                "marker-color": "#b7a214",
                "name": "Garland",
                "draw_type": "circle",
                "source": "city85"
            },
            "type": "Feature"
        },
        {
            "geometry": {
                "coordinates": [
                    -80.2781057,
                    25.8575963
                ],
                "type": "Point"
            },
            "properties": {
                "marker-color": "#663854",
                "name": "Hialeah",
                "draw_type": "circle",
                "source": "city86"
            },
            "type": "Feature"
        },
        {
            "geometry": {
                "coordinates": [
                    -119.8138027,
                    39.5296329
                ],
                "type": "Point"
            },
            "properties": {
                "marker-color": "#e9d66b",
                "name": "Reno",
                "draw_type": "circle",
                "source": "city87"
            },
            "type": "Feature"
        },
        {
            "geometry": {
                "coordinates": [
                    -76.2874927,
                    36.7682088
                ],
                "type": "Point"
            },
            "properties": {
                "marker-color": "#f1e9ff",
                "name": "Chesapeake",
                "draw_type": "circle",
                "source": "city88"
            },
            "type": "Feature"
        },
        {
            "geometry": {
                "coordinates": [
                    -111.789027,
                    33.3528264
                ],
                "type": "Point"
            },
            "properties": {
                "marker-color": "#cc99cc",
                "name": "Gilbert",
                "draw_type": "circle",
                "source": "city89"
            },
            "type": "Feature"
        },
        {
            "geometry": {
                "coordinates": [
                    -91.1403196,
                    30.4582829
                ],
                "type": "Point"
            },
            "properties": {
                "marker-color": "#aa375a",
                "name": "Baton Rouge",
                "draw_type": "circle",
                "source": "city90"
            },
            "type": "Feature"
        },
        {
            "geometry": {
                "coordinates": [
                    -96.9488945,
                    32.8140177
                ],
                "type": "Point"
            },
            "properties": {
                "marker-color": "#015e85",
                "name": "Irving",
                "draw_type": "circle",
                "source": "city91"
            },
            "type": "Feature"
        },
        {
            "geometry": {
                "coordinates": [
                    -111.9260519,
                    33.4941704
                ],
                "type": "Point"
            },
            "properties": {
                "marker-color": "#c46210",
                "name": "Scottsdale",
                "draw_type": "circle",
                "source": "city92"
            },
            "type": "Feature"
        },
        {
            "geometry": {
                "coordinates": [
                    -115.1175013,
                    36.1988592
                ],
                "type": "Point"
            },
            "properties": {
                "marker-color": "#c6e610",
                "name": "North Las Vegas",
                "draw_type": "circle",
                "source": "city93"
            },
            "type": "Feature"
        },
        {
            "geometry": {
                "coordinates": [
                    -121.9885719,
                    37.5482697
                ],
                "type": "Point"
            },
            "properties": {
                "marker-color": "#f5e050",
                "name": "Fremont",
                "draw_type": "circle",
                "source": "city94"
            },
            "type": "Feature"
        },
        {
            "geometry": {
                "coordinates": [
                    -116.2146068,
                    43.6187102
                ],
                "type": "Point"
            },
            "properties": {
                "marker-color": "#7c7b7a",
                "name": "Boise City",
                "draw_type": "circle",
                "source": "city95"
            },
            "type": "Feature"
        },
        {
            "geometry": {
                "coordinates": [
                    -77.4360481,
                    37.5407246
                ],
                "type": "Point"
            },
            "properties": {
                "marker-color": "#4a646c",
                "name": "Richmond",
                "draw_type": "circle",
                "source": "city96"
            },
            "type": "Feature"
        },
        {
            "geometry": {
                "coordinates": [
                    -117.2897652,
                    34.1083449
                ],
                "type": "Point"
            },
            "properties": {
                "marker-color": "#004953",
                "name": "San Bernardino",
                "draw_type": "circle",
                "source": "city97"
            },
            "type": "Feature"
        },
        {
            "geometry": {
                "coordinates": [
                    -86.80248999999999,
                    33.5206608
                ],
                "type": "Point"
            },
            "properties": {
                "marker-color": "#f3fb62",
                "name": "Birmingham",
                "draw_type": "circle",
                "source": "city98"
            },
            "type": "Feature"
        },
        {
            "geometry": {
                "coordinates": [
                    -117.4260466,
                    47.6587802
                ],
                "type": "Point"
            },
            "properties": {
                "marker-color": "#fc89ac",
                "name": "Spokane",
                "draw_type": "circle",
                "source": "city99"
            },
            "type": "Feature"
        },
        {
            "geometry": {
                "coordinates": [
                    -77.6109219,
                    43.16103
                ],
                "type": "Point"
            },
            "properties": {
                "marker-color": "#61845f",
                "name": "Rochester",
                "draw_type": "circle",
                "source": "city100"
            },
            "type": "Feature"
        },
        {
            "geometry": {
                "coordinates": [
                    -93.6091064,
                    41.6005448
                ],
                "type": "Point"
            },
            "properties": {
                "marker-color": "#306030",
                "name": "Des Moines",
                "draw_type": "circle",
                "source": "city101"
            },
            "type": "Feature"
        },
        {
            "geometry": {
                "coordinates": [
                    -120.9968782,
                    37.63909719999999
                ],
                "type": "Point"
            },
            "properties": {
                "marker-color": "#a3c1ad",
                "name": "Modesto",
                "draw_type": "circle",
                "source": "city102"
            },
            "type": "Feature"
        },
        {
            "geometry": {
                "coordinates": [
                    -78.87835849999999,
                    35.0526641
                ],
                "type": "Point"
            },
            "properties": {
                "marker-color": "#ffcc00",
                "name": "Fayetteville",
                "draw_type": "circle",
                "source": "city103"
            },
            "type": "Feature"
        },
        {
            "geometry": {
                "coordinates": [
                    -122.4442906,
                    47.2528768
                ],
                "type": "Point"
            },
            "properties": {
                "marker-color": "#663399",
                "name": "Tacoma",
                "draw_type": "circle",
                "source": "city104"
            },
            "type": "Feature"
        },
        {
            "geometry": {
                "coordinates": [
                    -119.1770516,
                    34.1975048
                ],
                "type": "Point"
            },
            "properties": {
                "marker-color": "#ae98aa",
                "name": "Oxnard",
                "draw_type": "circle",
                "source": "city105"
            },
            "type": "Feature"
        },
        {
            "geometry": {
                "coordinates": [
                    -117.435048,
                    34.0922335
                ],
                "type": "Point"
            },
            "properties": {
                "marker-color": "#fddde6",
                "name": "Fontana",
                "draw_type": "circle",
                "source": "city106"
            },
            "type": "Feature"
        },
        {
            "geometry": {
                "coordinates": [
                    -84.9877094,
                    32.4609764
                ],
                "type": "Point"
            },
            "properties": {
                "marker-color": "#9f8170",
                "name": "Columbus",
                "draw_type": "circle",
                "source": "city107"
            },
            "type": "Feature"
        },
        {
            "geometry": {
                "coordinates": [
                    -86.2999689,
                    32.3668052
                ],
                "type": "Point"
            },
            "properties": {
                "marker-color": "#800b47",
                "name": "Montgomery",
                "draw_type": "circle",
                "source": "city108"
            },
            "type": "Feature"
        },
        {
            "geometry": {
                "coordinates": [
                    -117.2296717,
                    33.9424658
                ],
                "type": "Point"
            },
            "properties": {
                "marker-color": "#692545",
                "name": "Moreno Valley",
                "draw_type": "circle",
                "source": "city109"
            },
            "type": "Feature"
        },
        {
            "geometry": {
                "coordinates": [
                    -93.7501789,
                    32.5251516
                ],
                "type": "Point"
            },
            "properties": {
                "marker-color": "#377475",
                "name": "Shreveport",
                "draw_type": "circle",
                "source": "city110"
            },
            "type": "Feature"
        },
        {
            "geometry": {
                "coordinates": [
                    -88.32007150000001,
                    41.7605849
                ],
                "type": "Point"
            },
            "properties": {
                "marker-color": "#cbdbd6",
                "name": "Aurora",
                "draw_type": "circle",
                "source": "city111"
            },
            "type": "Feature"
        },
        {
            "geometry": {
                "coordinates": [
                    -73.89874689999999,
                    40.9312099
                ],
                "type": "Point"
            },
            "properties": {
                "marker-color": "#427977",
                "name": "Yonkers",
                "draw_type": "circle",
                "source": "city112"
            },
            "type": "Feature"
        },
        {
            "geometry": {
                "coordinates": [
                    -81.51900529999999,
                    41.0814447
                ],
                "type": "Point"
            },
            "properties": {
                "marker-color": "#ecd540",
                "name": "Akron",
                "draw_type": "circle",
                "source": "city113"
            },
            "type": "Feature"
        },
        {
            "geometry": {
                "coordinates": [
                    -117.9992265,
                    33.660297
                ],
                "type": "Point"
            },
            "properties": {
                "marker-color": "#fbf9f9",
                "name": "Huntington Beach",
                "draw_type": "circle",
                "source": "city114"
            },
            "type": "Feature"
        },
        {
            "geometry": {
                "coordinates": [
                    -92.28959479999999,
                    34.7464809
                ],
                "type": "Point"
            },
            "properties": {
                "marker-color": "#ffdeb3",
                "name": "Little Rock",
                "draw_type": "circle",
                "source": "city115"
            },
            "type": "Feature"
        },
        {
            "geometry": {
                "coordinates": [
                    -82.0105148,
                    33.4734978
                ],
                "type": "Point"
            },
            "properties": {
                "marker-color": "#c3b091",
                "name": "Augusta-Richmond County",
                "draw_type": "circle",
                "source": "city116"
            },
            "type": "Feature"
        },
        {
            "geometry": {
                "coordinates": [
                    -101.8312969,
                    35.2219971
                ],
                "type": "Point"
            },
            "properties": {
                "marker-color": "#cf71af",
                "name": "Amarillo",
                "draw_type": "circle",
                "source": "city117"
            },
            "type": "Feature"
        },
        {
            "geometry": {
                "coordinates": [
                    -118.255075,
                    34.1425078
                ],
                "type": "Point"
            },
            "properties": {
                "marker-color": "#af4d43",
                "name": "Glendale",
                "draw_type": "circle",
                "source": "city118"
            },
            "type": "Feature"
        },
        {
            "geometry": {
                "coordinates": [
                    -88.0398912,
                    30.6953657
                ],
                "type": "Point"
            },
            "properties": {
                "marker-color": "#4b5320",
                "name": "Mobile",
                "draw_type": "circle",
                "source": "city119"
            },
            "type": "Feature"
        },
        {
            "geometry": {
                "coordinates": [
                    -85.6680863,
                    42.9633599
                ],
                "type": "Point"
            },
            "properties": {
                "marker-color": "#979aaa",
                "name": "Grand Rapids",
                "draw_type": "circle",
                "source": "city120"
            },
            "type": "Feature"
        },
        {
            "geometry": {
                "coordinates": [
                    -111.8910474,
                    40.7607793
                ],
                "type": "Point"
            },
            "properties": {
                "marker-color": "#55280c",
                "name": "Salt Lake City",
                "draw_type": "circle",
                "source": "city121"
            },
            "type": "Feature"
        },
        {
            "geometry": {
                "coordinates": [
                    -84.28073289999999,
                    30.4382559
                ],
                "type": "Point"
            },
            "properties": {
                "marker-color": "#b5a27f",
                "name": "Tallahassee",
                "draw_type": "circle",
                "source": "city122"
            },
            "type": "Feature"
        },
        {
            "geometry": {
                "coordinates": [
                    -86.5861037,
                    34.7303688
                ],
                "type": "Point"
            },
            "properties": {
                "marker-color": "#350e42",
                "name": "Huntsville",
                "draw_type": "circle",
                "source": "city123"
            },
            "type": "Feature"
        },
        {
            "geometry": {
                "coordinates": [
                    -96.99778459999999,
                    32.7459645
                ],
                "type": "Point"
            },
            "properties": {
                "marker-color": "#84de02",
                "name": "Grand Prairie",
                "draw_type": "circle",
                "source": "city124"
            },
            "type": "Feature"
        },
        {
            "geometry": {
                "coordinates": [
                    -83.9207392,
                    35.9606384
                ],
                "type": "Point"
            },
            "properties": {
                "marker-color": "#f75394",
                "name": "Knoxville",
                "draw_type": "circle",
                "source": "city125"
            },
            "type": "Feature"
        },
        {
            "geometry": {
                "coordinates": [
                    -71.8022934,
                    42.2625932
                ],
                "type": "Point"
            },
            "properties": {
                "marker-color": "#843f5b",
                "name": "Worcester",
                "draw_type": "circle",
                "source": "city126"
            },
            "type": "Feature"
        },
        {
            "geometry": {
                "coordinates": [
                    -76.4730122,
                    37.0870821
                ],
                "type": "Point"
            },
            "properties": {
                "marker-color": "#749378",
                "name": "Newport News",
                "draw_type": "circle",
                "source": "city127"
            },
            "type": "Feature"
        },
        {
            "geometry": {
                "coordinates": [
                    -97.4974838,
                    25.9017472
                ],
                "type": "Point"
            },
            "properties": {
                "marker-color": "#b9c8ac",
                "name": "Brownsville",
                "draw_type": "circle",
                "source": "city128"
            },
            "type": "Feature"
        },
        {
            "geometry": {
                "coordinates": [
                    -94.6707917,
                    38.9822282
                ],
                "type": "Point"
            },
            "properties": {
                "marker-color": "#c4c4bc",
                "name": "Overland Park",
                "draw_type": "circle",
                "source": "city129"
            },
            "type": "Feature"
        },
        {
            "geometry": {
                "coordinates": [
                    -118.542586,
                    34.3916641
                ],
                "type": "Point"
            },
            "properties": {
                "marker-color": "#ff9e2c",
                "name": "Santa Clarita",
                "draw_type": "circle",
                "source": "city130"
            },
            "type": "Feature"
        },
        {
            "geometry": {
                "coordinates": [
                    -71.4128343,
                    41.8239891
                ],
                "type": "Point"
            },
            "properties": {
                "marker-color": "#b38b6d",
                "name": "Providence",
                "draw_type": "circle",
                "source": "city131"
            },
            "type": "Feature"
        },
        {
            "geometry": {
                "coordinates": [
                    -117.9414477,
                    33.7739053
                ],
                "type": "Point"
            },
            "properties": {
                "marker-color": "#417dc1",
                "name": "Garden Grove",
                "draw_type": "circle",
                "source": "city132"
            },
            "type": "Feature"
        },
        {
            "geometry": {
                "coordinates": [
                    -85.3096801,
                    35.0456297
                ],
                "type": "Point"
            },
            "properties": {
                "marker-color": "#431560",
                "name": "Chattanooga",
                "draw_type": "circle",
                "source": "city133"
            },
            "type": "Feature"
        },
        {
            "geometry": {
                "coordinates": [
                    -117.3794834,
                    33.1958696
                ],
                "type": "Point"
            },
            "properties": {
                "marker-color": "#aa4203",
                "name": "Oceanside",
                "draw_type": "circle",
                "source": "city134"
            },
            "type": "Feature"
        },
        {
            "geometry": {
                "coordinates": [
                    -90.1848103,
                    32.2987573
                ],
                "type": "Point"
            },
            "properties": {
                "marker-color": "#d8c2d5",
                "name": "Jackson",
                "draw_type": "circle",
                "source": "city135"
            },
            "type": "Feature"
        },
        {
            "geometry": {
                "coordinates": [
                    -80.13731740000001,
                    26.1224386
                ],
                "type": "Point"
            },
            "properties": {
                "marker-color": "#2a8000",
                "name": "Fort Lauderdale",
                "draw_type": "circle",
                "source": "city136"
            },
            "type": "Feature"
        },
        {
            "geometry": {
                "coordinates": [
                    -122.7140548,
                    38.440429
                ],
                "type": "Point"
            },
            "properties": {
                "marker-color": "#7f7589",
                "name": "Santa Rosa",
                "draw_type": "circle",
                "source": "city137"
            },
            "type": "Feature"
        },
        {
            "geometry": {
                "coordinates": [
                    -117.5931084,
                    34.10639889999999
                ],
                "type": "Point"
            },
            "properties": {
                "marker-color": "#ffe772",
                "name": "Rancho Cucamonga",
                "draw_type": "circle",
                "source": "city138"
            },
            "type": "Feature"
        },
        {
            "geometry": {
                "coordinates": [
                    -80.3582261,
                    27.2730492
                ],
                "type": "Point"
            },
            "properties": {
                "marker-color": "#286acd",
                "name": "Port St. Lucie",
                "draw_type": "circle",
                "source": "city139"
            },
            "type": "Feature"
        },
        {
            "geometry": {
                "coordinates": [
                    -111.9400054,
                    33.4255104
                ],
                "type": "Point"
            },
            "properties": {
                "marker-color": "#c69191",
                "name": "Tempe",
                "draw_type": "circle",
                "source": "city140"
            },
            "type": "Feature"
        },
        {
            "geometry": {
                "coordinates": [
                    -117.6508876,
                    34.0633443
                ],
                "type": "Point"
            },
            "properties": {
                "marker-color": "#8a7f80",
                "name": "Ontario",
                "draw_type": "circle",
                "source": "city141"
            },
            "type": "Feature"
        },
        {
            "geometry": {
                "coordinates": [
                    -122.6614861,
                    45.6387281
                ],
                "type": "Point"
            },
            "properties": {
                "marker-color": "#deaa88",
                "name": "Vancouver",
                "draw_type": "circle",
                "source": "city142"
            },
            "type": "Feature"
        },
        {
            "geometry": {
                "coordinates": [
                    -81.9495331,
                    26.5628537
                ],
                "type": "Point"
            },
            "properties": {
                "marker-color": "#9678b6",
                "name": "Cape Coral",
                "draw_type": "circle",
                "source": "city143"
            },
            "type": "Feature"
        },
        {
            "geometry": {
                "coordinates": [
                    -96.73110340000001,
                    43.5445959
                ],
                "type": "Point"
            },
            "properties": {
                "marker-color": "#e86100",
                "name": "Sioux Falls",
                "draw_type": "circle",
                "source": "city144"
            },
            "type": "Feature"
        },
        {
            "geometry": {
                "coordinates": [
                    -93.29229889999999,
                    37.2089572
                ],
                "type": "Point"
            },
            "properties": {
                "marker-color": "#749378",
                "name": "Springfield",
                "draw_type": "circle",
                "source": "city145"
            },
            "type": "Feature"
        },
        {
            "geometry": {
                "coordinates": [
                    -112.2373779,
                    33.5805955
                ],
                "type": "Point"
            },
            "properties": {
                "marker-color": "#5946b2",
                "name": "Peoria",
                "draw_type": "circle",
                "source": "city146"
            },
            "type": "Feature"
        },
        {
            "geometry": {
                "coordinates": [
                    -80.2962555,
                    26.007765
                ],
                "type": "Point"
            },
            "properties": {
                "marker-color": "#1959a8",
                "name": "Pembroke Pines",
                "draw_type": "circle",
                "source": "city147"
            },
            "type": "Feature"
        },
        {
            "geometry": {
                "coordinates": [
                    -121.3716178,
                    38.4087993
                ],
                "type": "Point"
            },
            "properties": {
                "marker-color": "#d5f6e3",
                "name": "Elk Grove",
                "draw_type": "circle",
                "source": "city148"
            },
            "type": "Feature"
        },
        {
            "geometry": {
                "coordinates": [
                    -123.0350963,
                    44.9428975
                ],
                "type": "Point"
            },
            "properties": {
                "marker-color": "#fffdf4",
                "name": "Salem",
                "draw_type": "circle",
                "source": "city149"
            },
            "type": "Feature"
        },
        {
            "geometry": {
                "coordinates": [
                    -118.1541632,
                    34.6867846
                ],
                "type": "Point"
            },
            "properties": {
                "marker-color": "#800080",
                "name": "Lancaster",
                "draw_type": "circle",
                "source": "city150"
            },
            "type": "Feature"
        },
        {
            "geometry": {
                "coordinates": [
                    -117.5664384,
                    33.8752935
                ],
                "type": "Point"
            },
            "properties": {
                "marker-color": "#436a0d",
                "name": "Corona",
                "draw_type": "circle",
                "source": "city151"
            },
            "type": "Feature"
        },
        {
            "geometry": {
                "coordinates": [
                    -123.0867536,
                    44.0520691
                ],
                "type": "Point"
            },
            "properties": {
                "marker-color": "#333399",
                "name": "Eugene",
                "draw_type": "circle",
                "source": "city152"
            },
            "type": "Feature"
        },
        {
            "geometry": {
                "coordinates": [
                    -118.1164613,
                    34.5794343
                ],
                "type": "Point"
            },
            "properties": {
                "marker-color": "#c45655",
                "name": "Palmdale",
                "draw_type": "circle",
                "source": "city153"
            },
            "type": "Feature"
        },
        {
            "geometry": {
                "coordinates": [
                    -121.6555013,
                    36.6777372
                ],
                "type": "Point"
            },
            "properties": {
                "marker-color": "#f8dd5c",
                "name": "Salinas",
                "draw_type": "circle",
                "source": "city154"
            },
            "type": "Feature"
        },
        {
            "geometry": {
                "coordinates": [
                    -72.589811,
                    42.1014831
                ],
                "type": "Point"
            },
            "properties": {
                "marker-color": "#2f6168",
                "name": "Springfield",
                "draw_type": "circle",
                "source": "city155"
            },
            "type": "Feature"
        },
        {
            "geometry": {
                "coordinates": [
                    -95.2091006,
                    29.6910625
                ],
                "type": "Point"
            },
            "properties": {
                "marker-color": "#bede0d",
                "name": "Pasadena",
                "draw_type": "circle",
                "source": "city156"
            },
            "type": "Feature"
        },
        {
            "geometry": {
                "coordinates": [
                    -105.084423,
                    40.5852602
                ],
                "type": "Point"
            },
            "properties": {
                "marker-color": "#fbbeda",
                "name": "Fort Collins",
                "draw_type": "circle",
                "source": "city157"
            },
            "type": "Feature"
        },
        {
            "geometry": {
                "coordinates": [
                    -122.0807964,
                    37.6688205
                ],
                "type": "Point"
            },
            "properties": {
                "marker-color": "#9955bb",
                "name": "Hayward",
                "draw_type": "circle",
                "source": "city158"
            },
            "type": "Feature"
        },
        {
            "geometry": {
                "coordinates": [
                    -117.7499909,
                    34.055103
                ],
                "type": "Point"
            },
            "properties": {
                "marker-color": "#00755e",
                "name": "Pomona",
                "draw_type": "circle",
                "source": "city159"
            },
            "type": "Feature"
        },
        {
            "geometry": {
                "coordinates": [
                    -78.7811169,
                    35.79154
                ],
                "type": "Point"
            },
            "properties": {
                "marker-color": "#5218fa",
                "name": "Cary",
                "draw_type": "circle",
                "source": "city160"
            },
            "type": "Feature"
        },
        {
            "geometry": {
                "coordinates": [
                    -89.0939952,
                    42.2711311
                ],
                "type": "Point"
            },
            "properties": {
                "marker-color": "#aad6e6",
                "name": "Rockford",
                "draw_type": "circle",
                "source": "city161"
            },
            "type": "Feature"
        },
        {
            "geometry": {
                "coordinates": [
                    -77.0469214,
                    38.8048355
                ],
                "type": "Point"
            },
            "properties": {
                "marker-color": "#fe6f5e",
                "name": "Alexandria",
                "draw_type": "circle",
                "source": "city162"
            },
            "type": "Feature"
        },
        {
            "geometry": {
                "coordinates": [
                    -117.086421,
                    33.1192068
                ],
                "type": "Point"
            },
            "properties": {
                "marker-color": "#64ccdb",
                "name": "Escondido",
                "draw_type": "circle",
                "source": "city163"
            },
            "type": "Feature"
        },
        {
            "geometry": {
                "coordinates": [
                    -96.6397822,
                    33.1972465
                ],
                "type": "Point"
            },
            "properties": {
                "marker-color": "#d9f7ff",
                "name": "McKinney",
                "draw_type": "circle",
                "source": "city164"
            },
            "type": "Feature"
        },
        {
            "geometry": {
                "coordinates": [
                    -94.6274636,
                    39.114053
                ],
                "type": "Point"
            },
            "properties": {
                "marker-color": "#cc6666",
                "name": "Kansas City",
                "draw_type": "circle",
                "source": "city165"
            },
            "type": "Feature"
        },
        {
            "geometry": {
                "coordinates": [
                    -88.0817251,
                    41.525031
                ],
                "type": "Point"
            },
            "properties": {
                "marker-color": "#df6124",
                "name": "Joliet",
                "draw_type": "circle",
                "source": "city166"
            },
            "type": "Feature"
        },
        {
            "geometry": {
                "coordinates": [
                    -122.0363496,
                    37.36883
                ],
                "type": "Point"
            },
            "properties": {
                "marker-color": "#c7031e",
                "name": "Sunnyvale",
                "draw_type": "circle",
                "source": "city167"
            },
            "type": "Feature"
        },
        {
            "geometry": {
                "coordinates": [
                    -118.3406288,
                    33.8358492
                ],
                "type": "Point"
            },
            "properties": {
                "marker-color": "#3b3c36",
                "name": "Torrance",
                "draw_type": "circle",
                "source": "city168"
            },
            "type": "Feature"
        },
        {
            "geometry": {
                "coordinates": [
                    -73.19517669999999,
                    41.1865478
                ],
                "type": "Point"
            },
            "properties": {
                "marker-color": "#ffdf46",
                "name": "Bridgeport",
                "draw_type": "circle",
                "source": "city169"
            },
            "type": "Feature"
        },
        {
            "geometry": {
                "coordinates": [
                    -105.0813734,
                    39.7047095
                ],
                "type": "Point"
            },
            "properties": {
                "marker-color": "#f5e9d3",
                "name": "Lakewood",
                "draw_type": "circle",
                "source": "city170"
            },
            "type": "Feature"
        },
        {
            "geometry": {
                "coordinates": [
                    -80.1494901,
                    26.0112014
                ],
                "type": "Point"
            },
            "properties": {
                "marker-color": "#fb607f",
                "name": "Hollywood",
                "draw_type": "circle",
                "source": "city171"
            },
            "type": "Feature"
        },
        {
            "geometry": {
                "coordinates": [
                    -74.17181099999999,
                    40.9167654
                ],
                "type": "Point"
            },
            "properties": {
                "marker-color": "#483c32",
                "name": "Paterson",
                "draw_type": "circle",
                "source": "city172"
            },
            "type": "Feature"
        },
        {
            "geometry": {
                "coordinates": [
                    -88.1535352,
                    41.7508391
                ],
                "type": "Point"
            },
            "properties": {
                "marker-color": "#664c28",
                "name": "Naperville",
                "draw_type": "circle",
                "source": "city173"
            },
            "type": "Feature"
        },
        {
            "geometry": {
                "coordinates": [
                    -76.14742439999999,
                    43.0481221
                ],
                "type": "Point"
            },
            "properties": {
                "marker-color": "#f4f2ee",
                "name": "Syracuse",
                "draw_type": "circle",
                "source": "city174"
            },
            "type": "Feature"
        },
        {
            "geometry": {
                "coordinates": [
                    -96.5991593,
                    32.76679550000001
                ],
                "type": "Point"
            },
            "properties": {
                "marker-color": "#423921",
                "name": "Mesquite",
                "draw_type": "circle",
                "source": "city175"
            },
            "type": "Feature"
        },
        {
            "geometry": {
                "coordinates": [
                    -84.1916069,
                    39.7589478
                ],
                "type": "Point"
            },
            "properties": {
                "marker-color": "#bdbdc6",
                "name": "Dayton",
                "draw_type": "circle",
                "source": "city176"
            },
            "type": "Feature"
        },
        {
            "geometry": {
                "coordinates": [
                    -81.09983419999999,
                    32.0835407
                ],
                "type": "Point"
            },
            "properties": {
                "marker-color": "#00cccc",
                "name": "Savannah",
                "draw_type": "circle",
                "source": "city177"
            },
            "type": "Feature"
        },
        {
            "geometry": {
                "coordinates": [
                    -87.3594528,
                    36.5297706
                ],
                "type": "Point"
            },
            "properties": {
                "marker-color": "#c0362c",
                "name": "Clarksville",
                "draw_type": "circle",
                "source": "city178"
            },
            "type": "Feature"
        },
        {
            "geometry": {
                "coordinates": [
                    -117.8531119,
                    33.7877944
                ],
                "type": "Point"
            },
            "properties": {
                "marker-color": "#5b92e5",
                "name": "Orange",
                "draw_type": "circle",
                "source": "city179"
            },
            "type": "Feature"
        },
        {
            "geometry": {
                "coordinates": [
                    -118.1445155,
                    34.1477849
                ],
                "type": "Point"
            },
            "properties": {
                "marker-color": "#eed794",
                "name": "Pasadena",
                "draw_type": "circle",
                "source": "city180"
            },
            "type": "Feature"
        },
        {
            "geometry": {
                "coordinates": [
                    -117.9242966,
                    33.8703596
                ],
                "type": "Point"
            },
            "properties": {
                "marker-color": "#f3ad16",
                "name": "Fullerton",
                "draw_type": "circle",
                "source": "city181"
            },
            "type": "Feature"
        },
        {
            "geometry": {
                "coordinates": [
                    -97.72779589999999,
                    31.1171194
                ],
                "type": "Point"
            },
            "properties": {
                "marker-color": "#990000",
                "name": "Killeen",
                "draw_type": "circle",
                "source": "city182"
            },
            "type": "Feature"
        },
        {
            "geometry": {
                "coordinates": [
                    -96.82361159999999,
                    33.1506744
                ],
                "type": "Point"
            },
            "properties": {
                "marker-color": "#13264d",
                "name": "Frisco",
                "draw_type": "circle",
                "source": "city183"
            },
            "type": "Feature"
        },
        {
            "geometry": {
                "coordinates": [
                    -76.34522179999999,
                    37.0298687
                ],
                "type": "Point"
            },
            "properties": {
                "marker-color": "#796878",
                "name": "Hampton",
                "draw_type": "circle",
                "source": "city184"
            },
            "type": "Feature"
        },
        {
            "geometry": {
                "coordinates": [
                    -98.23001239999999,
                    26.2034071
                ],
                "type": "Point"
            },
            "properties": {
                "marker-color": "#8fd400",
                "name": "McAllen",
                "draw_type": "circle",
                "source": "city185"
            },
            "type": "Feature"
        },
        {
            "geometry": {
                "coordinates": [
                    -83.01465259999999,
                    42.5144566
                ],
                "type": "Point"
            },
            "properties": {
                "marker-color": "#009966",
                "name": "Warren",
                "draw_type": "circle",
                "source": "city186"
            },
            "type": "Feature"
        },
        {
            "geometry": {
                "coordinates": [
                    -122.2006786,
                    47.610377
                ],
                "type": "Point"
            },
            "properties": {
                "marker-color": "#dbe9f4",
                "name": "Bellevue",
                "draw_type": "circle",
                "source": "city187"
            },
            "type": "Feature"
        },
        {
            "geometry": {
                "coordinates": [
                    -112.0010501,
                    40.6916132
                ],
                "type": "Point"
            },
            "properties": {
                "marker-color": "#4eabd1",
                "name": "West Valley City",
                "draw_type": "circle",
                "source": "city188"
            },
            "type": "Feature"
        },
        {
            "geometry": {
                "coordinates": [
                    -81.0348144,
                    34.0007104
                ],
                "type": "Point"
            },
            "properties": {
                "marker-color": "#d2b48c",
                "name": "Columbia",
                "draw_type": "circle",
                "source": "city189"
            },
            "type": "Feature"
        },
        {
            "geometry": {
                "coordinates": [
                    -94.81912849999999,
                    38.8813958
                ],
                "type": "Point"
            },
            "properties": {
                "marker-color": "#eee600",
                "name": "Olathe",
                "draw_type": "circle",
                "source": "city190"
            },
            "type": "Feature"
        },
        {
            "geometry": {
                "coordinates": [
                    -83.0302033,
                    42.5803122
                ],
                "type": "Point"
            },
            "properties": {
                "marker-color": "#003153",
                "name": "Sterling Heights",
                "draw_type": "circle",
                "source": "city191"
            },
            "type": "Feature"
        },
        {
            "geometry": {
                "coordinates": [
                    -72.9278835,
                    41.308274
                ],
                "type": "Point"
            },
            "properties": {
                "marker-color": "#fff8dc",
                "name": "New Haven",
                "draw_type": "circle",
                "source": "city192"
            },
            "type": "Feature"
        },
        {
            "geometry": {
                "coordinates": [
                    -80.30356019999999,
                    25.9860762
                ],
                "type": "Point"
            },
            "properties": {
                "marker-color": "#b0c4de",
                "name": "Miramar",
                "draw_type": "circle",
                "source": "city193"
            },
            "type": "Feature"
        },
        {
            "geometry": {
                "coordinates": [
                    -97.1466695,
                    31.549333
                ],
                "type": "Point"
            },
            "properties": {
                "marker-color": "#6b4e31",
                "name": "Waco",
                "draw_type": "circle",
                "source": "city194"
            },
            "type": "Feature"
        },
        {
            "geometry": {
                "coordinates": [
                    -118.8375937,
                    34.1705609
                ],
                "type": "Point"
            },
            "properties": {
                "marker-color": "#4e420c",
                "name": "Thousand Oaks",
                "draw_type": "circle",
                "source": "city195"
            },
            "type": "Feature"
        },
        {
            "geometry": {
                "coordinates": [
                    -91.6656232,
                    41.9778795
                ],
                "type": "Point"
            },
            "properties": {
                "marker-color": "#80461b",
                "name": "Cedar Rapids",
                "draw_type": "circle",
                "source": "city196"
            },
            "type": "Feature"
        },
        {
            "geometry": {
                "coordinates": [
                    -79.93105120000001,
                    32.7764749
                ],
                "type": "Point"
            },
            "properties": {
                "marker-color": "#c8b568",
                "name": "Charleston",
                "draw_type": "circle",
                "source": "city197"
            },
            "type": "Feature"
        },
        {
            "geometry": {
                "coordinates": [
                    -119.2920585,
                    36.3302284
                ],
                "type": "Point"
            },
            "properties": {
                "marker-color": "#041322",
                "name": "Visalia",
                "draw_type": "circle",
                "source": "city198"
            },
            "type": "Feature"
        },
        {
            "geometry": {
                "coordinates": [
                    -95.68901849999999,
                    39.0558235
                ],
                "type": "Point"
            },
            "properties": {
                "marker-color": "#67a712",
                "name": "Topeka",
                "draw_type": "circle",
                "source": "city199"
            },
            "type": "Feature"
        },
        {
            "geometry": {
                "coordinates": [
                    -74.2107006,
                    40.6639916
                ],
                "type": "Point"
            },
            "properties": {
                "marker-color": "#727b89",
                "name": "Elizabeth",
                "draw_type": "circle",
                "source": "city200"
            },
            "type": "Feature"
        },
        {
            "geometry": {
                "coordinates": [
                    -82.32482619999999,
                    29.6516344
                ],
                "type": "Point"
            },
            "properties": {
                "marker-color": "#fffbf9",
                "name": "Gainesville",
                "draw_type": "circle",
                "source": "city201"
            },
            "type": "Feature"
        },
        {
            "geometry": {
                "coordinates": [
                    -104.9719243,
                    39.8680412
                ],
                "type": "Point"
            },
            "properties": {
                "marker-color": "#d2f8b0",
                "name": "Thornton",
                "draw_type": "circle",
                "source": "city202"
            },
            "type": "Feature"
        },
        {
            "geometry": {
                "coordinates": [
                    -121.2880059,
                    38.7521235
                ],
                "type": "Point"
            },
            "properties": {
                "marker-color": "#deba13",
                "name": "Roseville",
                "draw_type": "circle",
                "source": "city203"
            },
            "type": "Feature"
        },
        {
            "geometry": {
                "coordinates": [
                    -96.8899636,
                    32.9756415
                ],
                "type": "Point"
            },
            "properties": {
                "marker-color": "#354e8c",
                "name": "Carrollton",
                "draw_type": "circle",
                "source": "city204"
            },
            "type": "Feature"
        },
        {
            "geometry": {
                "coordinates": [
                    -80.2706044,
                    26.271192
                ],
                "type": "Point"
            },
            "properties": {
                "marker-color": "#edf6ff",
                "name": "Coral Springs",
                "draw_type": "circle",
                "source": "city205"
            },
            "type": "Feature"
        },
        {
            "geometry": {
                "coordinates": [
                    -73.5387341,
                    41.0534302
                ],
                "type": "Point"
            },
            "properties": {
                "marker-color": "#0000ff",
                "name": "Stamford",
                "draw_type": "circle",
                "source": "city206"
            },
            "type": "Feature"
        },
        {
            "geometry": {
                "coordinates": [
                    -118.781482,
                    34.2694474
                ],
                "type": "Point"
            },
            "properties": {
                "marker-color": "#800020",
                "name": "Simi Valley",
                "draw_type": "circle",
                "source": "city207"
            },
            "type": "Feature"
        },
        {
            "geometry": {
                "coordinates": [
                    -122.0310733,
                    37.9779776
                ],
                "type": "Point"
            },
            "properties": {
                "marker-color": "#f3ffd8",
                "name": "Concord",
                "draw_type": "circle",
                "source": "city208"
            },
            "type": "Feature"
        },
        {
            "geometry": {
                "coordinates": [
                    -72.6850932,
                    41.76371109999999
                ],
                "type": "Point"
            },
            "properties": {
                "marker-color": "#19330e",
                "name": "Hartford",
                "draw_type": "circle",
                "source": "city209"
            },
            "type": "Feature"
        },
        {
            "geometry": {
                "coordinates": [
                    -122.2348431,
                    47.3809335
                ],
                "type": "Point"
            },
            "properties": {
                "marker-color": "#004040",
                "name": "Kent",
                "draw_type": "circle",
                "source": "city210"
            },
            "type": "Feature"
        },
        {
            "geometry": {
                "coordinates": [
                    -92.0198427,
                    30.2240897
                ],
                "type": "Point"
            },
            "properties": {
                "marker-color": "#5e5d3b",
                "name": "Lafayette",
                "draw_type": "circle",
                "source": "city211"
            },
            "type": "Feature"
        },
        {
            "geometry": {
                "coordinates": [
                    -102.0779146,
                    31.9973456
                ],
                "type": "Point"
            },
            "properties": {
                "marker-color": "#ffddf4",
                "name": "Midland",
                "draw_type": "circle",
                "source": "city212"
            },
            "type": "Feature"
        },
        {
            "geometry": {
                "coordinates": [
                    -112.3679279,
                    33.6292337
                ],
                "type": "Point"
            },
            "properties": {
                "marker-color": "#737000",
                "name": "Surprise",
                "draw_type": "circle",
                "source": "city213"
            },
            "type": "Feature"
        },
        {
            "geometry": {
                "coordinates": [
                    -97.13306829999999,
                    33.2148412
                ],
                "type": "Point"
            },
            "properties": {
                "marker-color": "#e5e0e1",
                "name": "Denton",
                "draw_type": "circle",
                "source": "city214"
            },
            "type": "Feature"
        },
        {
            "geometry": {
                "coordinates": [
                    -117.2927641,
                    34.5362184
                ],
                "type": "Point"
            },
            "properties": {
                "marker-color": "#d99058",
                "name": "Victorville",
                "draw_type": "circle",
                "source": "city215"
            },
            "type": "Feature"
        },
        {
            "geometry": {
                "coordinates": [
                    -87.5710898,
                    37.9715592
                ],
                "type": "Point"
            },
            "properties": {
                "marker-color": "#99e6b3",
                "name": "Evansville",
                "draw_type": "circle",
                "source": "city216"
            },
            "type": "Feature"
        },
        {
            "geometry": {
                "coordinates": [
                    -121.9552356,
                    37.3541079
                ],
                "type": "Point"
            },
            "properties": {
                "marker-color": "#58427c",
                "name": "Santa Clara",
                "draw_type": "circle",
                "source": "city217"
            },
            "type": "Feature"
        },
        {
            "geometry": {
                "coordinates": [
                    -99.73314390000002,
                    32.4487364
                ],
                "type": "Point"
            },
            "properties": {
                "marker-color": "#9efd38",
                "name": "Abilene",
                "draw_type": "circle",
                "source": "city218"
            },
            "type": "Feature"
        },
        {
            "geometry": {
                "coordinates": [
                    -83.357567,
                    33.9519347
                ],
                "type": "Point"
            },
            "properties": {
                "marker-color": "#e6e6fa",
                "name": "Athens-Clarke County",
                "draw_type": "circle",
                "source": "city219"
            },
            "type": "Feature"
        },
        {
            "geometry": {
                "coordinates": [
                    -122.2566367,
                    38.1040864
                ],
                "type": "Point"
            },
            "properties": {
                "marker-color": "#e9d75a",
                "name": "Vallejo",
                "draw_type": "circle",
                "source": "city220"
            },
            "type": "Feature"
        },
        {
            "geometry": {
                "coordinates": [
                    -75.4901833,
                    40.6084305
                ],
                "type": "Point"
            },
            "properties": {
                "marker-color": "#d3003f",
                "name": "Allentown",
                "draw_type": "circle",
                "source": "city221"
            },
            "type": "Feature"
        },
        {
            "geometry": {
                "coordinates": [
                    -97.4394777,
                    35.2225668
                ],
                "type": "Point"
            },
            "properties": {
                "marker-color": "#edcdab",
                "name": "Norman",
                "draw_type": "circle",
                "source": "city222"
            },
            "type": "Feature"
        },
        {
            "geometry": {
                "coordinates": [
                    -94.1265562,
                    30.080174
                ],
                "type": "Point"
            },
            "properties": {
                "marker-color": "#a1750d",
                "name": "Beaumont",
                "draw_type": "circle",
                "source": "city223"
            },
            "type": "Feature"
        },
        {
            "geometry": {
                "coordinates": [
                    -94.41550679999999,
                    39.0911161
                ],
                "type": "Point"
            },
            "properties": {
                "marker-color": "#add8e6",
                "name": "Independence",
                "draw_type": "circle",
                "source": "city224"
            },
            "type": "Feature"
        },
        {
            "geometry": {
                "coordinates": [
                    -86.39027,
                    35.8456213
                ],
                "type": "Point"
            },
            "properties": {
                "marker-color": "#2b0202",
                "name": "Murfreesboro",
                "draw_type": "circle",
                "source": "city225"
            },
            "type": "Feature"
        },
        {
            "geometry": {
                "coordinates": [
                    -83.7430378,
                    42.2808256
                ],
                "type": "Point"
            },
            "properties": {
                "marker-color": "#ac8a56",
                "name": "Ann Arbor",
                "draw_type": "circle",
                "source": "city226"
            },
            "type": "Feature"
        },
        {
            "geometry": {
                "coordinates": [
                    -89.6501481,
                    39.78172130000001
                ],
                "type": "Point"
            },