{
    "type": "FeatureCollection",
    "features": [
        {
            "geometry": {
                "coordinates": [
                    -74.0059413,
                    40.7127837
                ],
                "type": "Point"
            },
            "properties": {
                "name": "New York",
                "draw_type": "symbol",
                "source": "city0",
                "image": "./Assignments/A04/assets/images/icons/city-15.svg"
            },
            "type": "Feature"
        },
        {
            "geometry": {
                "coordinates": [
                    -118.2436849,
                    34.0522342
                ],
                "type": "Point"
            },
            "properties": {
                "name": "Los Angeles",
                "draw_type": "symbol",
                "source": "city1",
                "image": "./Assignments/A04/assets/images/icons/city-15.svg"
            },
            "type": "Feature"
        },
        {
            "geometry": {
                "coordinates": [
                    -87.6297982,
                    41.8781136
                ],
                "type": "Point"
            },
            "properties": {
                "name": "Chicago",
                "draw_type": "symbol",
                "source": "city2",
                "image": "./Assignments/A04/assets/images/icons/city-15.svg"
            },
            "type": "Feature"
        },
        {
            "geometry": {
                "coordinates": [
                    -95.3698028,
                    29.7604267
                ],
                "type": "Point"
            },
            "properties": {
                "name": "Houston",
                "draw_type": "symbol",
                "source": "city3",
                "image": "./Assignments/A04/assets/images/icons/city-15.svg"
            },
            "type": "Feature"
        },
        {
            "geometry": {
                "coordinates": [
                    -75.1652215,
                    39.9525839
                ],
                "type": "Point"
            },
            "properties": {
                "name": "Philadelphia",
                "draw_type": "symbol",
                "source": "city4",
                "image": "./Assignments/A04/assets/images/icons/city-15.svg"
            },
            "type": "Feature"
        },
        {
            "geometry": {
                "coordinates": [
                    -112.0740373,
                    33.4483771
                ],
                "type": "Point"
            },
            "properties": {
                "name": "Phoenix",
                "draw_type": "symbol",
                "source": "city5",
                "image": "./Assignments/A04/assets/images/icons/city-15.svg"
            },
            "type": "Feature"
        },
        {
            "geometry": {
                "coordinates": [
                    -98.49362819999999,
                    29.4241219
                ],
                "type": "Point"
            },
            "properties": {
                "name": "San Antonio",
                "draw_type": "symbol",
                "source": "city6",
                "image": "./Assignments/A04/assets/images/icons/city-15.svg"
            },
            "type": "Feature"
        },
        {
            "geometry": {
                "coordinates": [
                    -117.1610838,
                    32.715738
                ],
                "type": "Point"
            },
            "properties": {
                "name": "San Diego",
                "draw_type": "symbol",
                "source": "city7",
                "image": "./Assignments/A04/assets/images/icons/city-15.svg"
            },
            "type": "Feature"
        },
        {
            "geometry": {
                "coordinates": [
                    -96.79698789999999,
                    32.7766642
                ],
                "type": "Point"
            },
            "properties": {
                "name": "Dallas",
                "draw_type": "symbol",
                "source": "city8",
                "image": "./Assignments/A04/assets/images/icons/city-15.svg"
            },
            "type": "Feature"
        },
        {
            "geometry": {
                "coordinates": [
                    -121.8863286,
                    37.3382082
                ],
                "type": "Point"
            },
            "properties": {
                "name": "San Jose",
                "draw_type": "symbol",
                "source": "city9",
                "image": "./Assignments/A04/assets/images/icons/city-15.svg"
            },
            "type": "Feature"
        },
        {
            "geometry": {
                "coordinates": [
                    -97.7430608,
                    30.267153
                ],
                "type": "Point"
            },
            "properties": {
                "name": "Austin",
                "draw_type": "symbol",
                "source": "city10",
                "image": "./Assignments/A04/assets/images/icons/city-15.svg"
            },
            "type": "Feature"
        },
        {
            "geometry": {
                "coordinates": [
                    -86.158068,
                    39.768403
                ],
                "type": "Point"
            },
            "properties": {
                "name": "Indianapolis",
                "draw_type": "symbol",
                "source": "city11",
                "image": "./Assignments/A04/assets/images/icons/city-15.svg"
            },
            "type": "Feature"
        },
        {
            "geometry": {
                "coordinates": [
                    -81.65565099999999,
                    30.3321838
                ],
                "type": "Point"
            },
            "properties": {
                "name": "Jacksonville",
                "draw_type": "symbol",
                "source": "city12",
                "image": "./Assignments/A04/assets/images/icons/city-15.svg"
            },
            "type": "Feature"
        },
        {
            "geometry": {
                "coordinates": [
                    -122.4194155,
                    37.7749295
                ],
                "type": "Point"
            },
            "properties": {
                "name": "San Francisco",
                "draw_type": "symbol",
                "source": "city13",
                "image": "./Assignments/A04/assets/images/icons/city-15.svg"
            },
            "type": "Feature"
        },
        {
            "geometry": {
                "coordinates": [
                    -82.99879419999999,
                    39.9611755
                ],
                "type": "Point"
            },
            "properties": {
                "name": "Columbus",
                "draw_type": "symbol",
                "source": "city14",
                "image": "./Assignments/A04/assets/images/icons/city-15.svg"
            },
            "type": "Feature"
        },
        {
            "geometry": {
                "coordinates": [
                    -80.8431267,
                    35.2270869
                ],
                "type": "Point"
            },
            "properties": {
                "name": "Charlotte",
                "draw_type": "symbol",
                "source": "city15",
                "image": "./Assignments/A04/assets/images/icons/city-15.svg"
            },
            "type": "Feature"
        },
        {
            "geometry": {
                "coordinates": [
                    -97.3307658,
                    32.7554883
                ],
                "type": "Point"
            },
            "properties": {
                "name": "Fort Worth",
                "draw_type": "symbol",
                "source": "city16",
                "image": "./Assignments/A04/assets/images/icons/city-15.svg"
            },
            "type": "Feature"
        },
        {
            "geometry": {
                "coordinates": [
                    -83.0457538,
                    42.331427
                ],
                "type": "Point"
            },
            "properties": {
                "name": "Detroit",
                "draw_type": "symbol",
                "source": "city17",
                "image": "./Assignments/A04/assets/images/icons/city-15.svg"
            },
            "type": "Feature"
        },
        {
            "geometry": {
                "coordinates": [
                    -106.4424559,
                    31.7775757
                ],
                "type": "Point"
            },
            "properties": {
                "name": "El Paso",
                "draw_type": "symbol",
                "source": "city18",
                "image": "./Assignments/A04/assets/images/icons/city-15.svg"
            },
            "type": "Feature"
        },
        {
            "geometry": {
                "coordinates": [
                    -90.0489801,
                    35.1495343
                ],
                "type": "Point"
            },
            "properties": {
                "name": "Memphis",
                "draw_type": "symbol",
                "source": "city19",
                "image": "./Assignments/A04/assets/images/icons/city-15.svg"
            },
            "type": "Feature"
        },
        {
            "geometry": {
                "coordinates": [
                    -122.3320708,
                    47.6062095
                ],
                "type": "Point"
            },
            "properties": {
                "name": "Seattle",
                "draw_type": "symbol",
                "source": "city20",
                "image": "./Assignments/A04/assets/images/icons/city-15.svg"
            },
            "type": "Feature"
        },
        {
            "geometry": {
                "coordinates": [
                    -104.990251,
                    39.7392358
                ],
                "type": "Point"
            },
            "properties": {
                "name": "Denver",
                "draw_type": "symbol",
                "source": "city21",
                "image": "./Assignments/A04/assets/images/icons/city-15.svg"
            },
            "type": "Feature"
        },
        {
            "geometry": {
                "coordinates": [
                    -77.0368707,
                    38.9071923
                ],
                "type": "Point"
            },
            "properties": {
                "name": "Washington",
                "draw_type": "symbol",
                "source": "city22",
                "image": "./Assignments/A04/assets/images/icons/city-15.svg"
            },
            "type": "Feature"
        },
        {
            "geometry": {
                "coordinates": [
                    -71.0588801,
                    42.3600825
                ],
                "type": "Point"
            },
            "properties": {
                "name": "Boston",
                "draw_type": "symbol",
                "source": "city23",
                "image": "./Assignments/A04/assets/images/icons/city-15.svg"
            },
            "type": "Feature"
        },
        {
            "geometry": {
                "coordinates": [
                    -86.7816016,
                    36.1626638
                ],
                "type": "Point"
            },
            "properties": {
                "name": "Nashville-Davidson",
                "draw_type": "symbol",
                "source": "city24",
                "image": "./Assignments/A04/assets/images/icons/city-15.svg"
            },
            "type": "Feature"
        },
        {
            "geometry": {
                "coordinates": [
                    -76.6121893,
                    39.2903848
                ],
                "type": "Point"
            },
            "properties": {
                "name": "Baltimore",
                "draw_type": "symbol",
                "source": "city25",
                "image": "./Assignments/A04/assets/images/icons/city-15.svg"
            },
            "type": "Feature"
        },
        {
            "geometry": {
                "coordinates": [
                    -97.5164276,
                    35.4675602
                ],
                "type": "Point"
            },
            "properties": {
                "name": "Oklahoma City",
                "draw_type": "symbol",
                "source": "city26",
                "image": "./Assignments/A04/assets/images/icons/city-15.svg"
            },
            "type": "Feature"
        },
        {
            "geometry": {
                "coordinates": [
                    -85.7584557,
                    38.2526647
                ],
                "type": "Point"
            },
            "properties": {
                "name": "Louisville/Jefferson County",
                "draw_type": "symbol",
                "source": "city27",
                "image": "./Assignments/A04/assets/images/icons/city-15.svg"
            },
            "type": "Feature"
        },
        {
            "geometry": {
                "coordinates": [
                    -122.6764816,
                    45.5230622
                ],
                "type": "Point"
            },
            "properties": {
                "name": "Portland",
                "draw_type": "symbol",
                "source": "city28",
                "image": "./Assignments/A04/assets/images/icons/city-15.svg"
            },
            "type": "Feature"
        },
        {
            "geometry": {
                "coordinates": [
                    -115.1398296,
                    36.1699412
                ],
                "type": "Point"
            },
            "properties": {
                "name": "Las Vegas",
                "draw_type": "symbol",
                "source": "city29",
                "image": "./Assignments/A04/assets/images/icons/city-15.svg"
            },
            "type": "Feature"
        },
        {
            "geometry": {
                "coordinates": [
                    -87.9064736,
                    43.0389025
                ],
                "type": "Point"
            },
            "properties": {
                "name": "Milwaukee",
                "draw_type": "symbol",
                "source": "city30",
                "image": "./Assignments/A04/assets/images/icons/city-15.svg"
            },
            "type": "Feature"
        },
        {
            "geometry": {
                "coordinates": [
                    -106.6055534,
                    35.0853336
                ],
                "type": "Point"
            },
            "properties": {
                "name": "Albuquerque",
                "draw_type": "symbol",
                "source": "city31",
                "image": "./Assignments/A04/assets/images/icons/city-15.svg"
            },
            "type": "Feature"
        },
        {
            "geometry": {
                "coordinates": [
                    -110.926479,
                    32.2217429
                ],
                "type": "Point"
            },
            "properties": {
                "name": "Tucson",
                "draw_type": "symbol",
                "source": "city32",
                "image": "./Assignments/A04/assets/images/icons/city-15.svg"
            },
            "type": "Feature"
        },
        {
            "geometry": {
                "coordinates": [
                    -119.7725868,
                    36.7468422
                ],
                "type": "Point"
            },
            "properties": {
                "name": "Fresno",
                "draw_type": "symbol",
                "source": "city33",
                "image": "./Assignments/A04/assets/images/icons/city-15.svg"
            },
            "type": "Feature"
        },
        {
            "geometry": {
                "coordinates": [
                    -121.4943996,
                    38.5815719
                ],
                "type": "Point"
            },
            "properties": {
                "name": "Sacramento",
                "draw_type": "symbol",
                "source": "city34",
                "image": "./Assignments/A04/assets/images/icons/city-15.svg"
            },
            "type": "Feature"
        },
        {
            "geometry": {
                "coordinates": [
                    -118.1937395,
                    33.7700504
                ],
                "type": "Point"
            },
            "properties": {
                "name": "Long Beach",
                "draw_type": "symbol",
                "source": "city35",
                "image": "./Assignments/A04/assets/images/icons/city-15.svg"
            },
            "type": "Feature"
        },
        {
            "geometry": {
                "coordinates": [
                    -94.5785667,
                    39.0997265
                ],
                "type": "Point"
            },
            "properties": {
                "name": "Kansas City",
                "draw_type": "symbol",
                "source": "city36",
                "image": "./Assignments/A04/assets/images/icons/city-15.svg"
            },
            "type": "Feature"
        },
        {
            "geometry": {
                "coordinates": [
                    -111.8314724,
                    33.4151843
                ],
                "type": "Point"
            },
            "properties": {
                "name": "Mesa",
                "draw_type": "symbol",
                "source": "city37",
                "image": "./Assignments/A04/assets/images/icons/city-15.svg"
            },
            "type": "Feature"
        },
        {
            "geometry": {
                "coordinates": [
                    -75.97798499999999,
                    36.8529263
                ],
                "type": "Point"
            },
            "properties": {
                "name": "Virginia Beach",
                "draw_type": "symbol",
                "source": "city38",
                "image": "./Assignments/A04/assets/images/icons/city-15.svg"
            },
            "type": "Feature"
        },
        {
            "geometry": {
                "coordinates": [
                    -84.3879824,
                    33.7489954
                ],
                "type": "Point"
            },
            "properties": {
                "name": "Atlanta",
                "draw_type": "symbol",
                "source": "city39",
                "image": "./Assignments/A04/assets/images/icons/city-15.svg"
            },
            "type": "Feature"
        },
        {
            "geometry": {
                "coordinates": [
                    -104.8213634,
                    38.8338816
                ],
                "type": "Point"
            },
            "properties": {
                "name": "Colorado Springs",
                "draw_type": "symbol",
                "source": "city40",
                "image": "./Assignments/A04/assets/images/icons/city-15.svg"
            },
            "type": "Feature"
        },
        {
            "geometry": {
                "coordinates": [
                    -95.99798829999999,
                    41.2523634
                ],
                "type": "Point"
            },
            "properties": {
                "name": "Omaha",
                "draw_type": "symbol",
                "source": "city41",
                "image": "./Assignments/A04/assets/images/icons/city-15.svg"
            },
            "type": "Feature"
        },
        {
            "geometry": {
                "coordinates": [
                    -78.6381787,
                    35.7795897
                ],
                "type": "Point"
            },
            "properties": {
                "name": "Raleigh",
                "draw_type": "symbol",
                "source": "city42",
                "image": "./Assignments/A04/assets/images/icons/city-15.svg"
            },
            "type": "Feature"
        },
        {
            "geometry": {
                "coordinates": [
                    -80.1917902,
                    25.7616798
                ],
                "type": "Point"
            },
            "properties": {
                "name": "Miami",
                "draw_type": "symbol",
                "source": "city43",
                "image": "./Assignments/A04/assets/images/icons/city-15.svg"
            },
            "type": "Feature"
        },
        {
            "geometry": {
                "coordinates": [
                    -122.2711137,
                    37.8043637
                ],
                "type": "Point"
            },
            "properties": {
                "name": "Oakland",
                "draw_type": "symbol",
                "source": "city44",
                "image": "./Assignments/A04/assets/images/icons/city-15.svg"
            },
            "type": "Feature"
        },
        {
            "geometry": {
                "coordinates": [
                    -93.2650108,
                    44.977753
                ],
                "type": "Point"
            },
            "properties": {
                "name": "Minneapolis",
                "draw_type": "symbol",
                "source": "city45",
                "image": "./Assignments/A04/assets/images/icons/city-15.svg"
            },
            "type": "Feature"
        },
        {
            "geometry": {
                "coordinates": [
                    -95.99277500000001,
                    36.1539816
                ],
                "type": "Point"
            },
            "properties": {
                "name": "Tulsa",
                "draw_type": "symbol",
                "source": "city46",
                "image": "./Assignments/A04/assets/images/icons/city-15.svg"
            },
            "type": "Feature"
        },
        {
            "geometry": {
                "coordinates": [
                    -81.6943605,
                    41.49932
                ],
                "type": "Point"
            },
            "properties": {
                "name": "Cleveland",
                "draw_type": "symbol",
                "source": "city47",
                "image": "./Assignments/A04/assets/images/icons/city-15.svg"
            },
            "type": "Feature"
        },
        {
            "geometry": {
                "coordinates": [
                    -97.336111,
                    37.688889
                ],
                "type": "Point"
            },
            "properties": {
                "name": "Wichita",
                "draw_type": "symbol",
                "source": "city48",
                "image": "./Assignments/A04/assets/images/icons/city-15.svg"
            },
            "type": "Feature"
        },
        {
            "geometry": {
                "coordinates": [
                    -97.10806559999999,
                    32.735687
                ],
                "type": "Point"
            },
            "properties": {
                "name": "Arlington",
                "draw_type": "symbol",
                "source": "city49",
                "image": "./Assignments/A04/assets/images/icons/city-15.svg"
            },
            "type": "Feature"
        },
        {
            "geometry": {
                "coordinates": [
                    -90.0715323,
                    29.95106579999999
                ],
                "type": "Point"
            },
            "properties": {
                "name": "New Orleans",
                "draw_type": "symbol",
                "source": "city50",
                "image": "./Assignments/A04/assets/images/icons/city-15.svg"
            },
            "type": "Feature"
        },
        {
            "geometry": {
                "coordinates": [
                    -119.0187125,
                    35.3732921
                ],
                "type": "Point"
            },
            "properties": {
                "name": "Bakersfield",
                "draw_type": "symbol",
                "source": "city51",
                "image": "./Assignments/A04/assets/images/icons/city-15.svg"
            },
            "type": "Feature"
        },
        {
            "geometry": {
                "coordinates": [
                    -82.4571776,
                    27.950575
                ],
                "type": "Point"
            },
            "properties": {
                "name": "Tampa",
                "draw_type": "symbol",
                "source": "city52",
                "image": "./Assignments/A04/assets/images/icons/city-15.svg"
            },
            "type": "Feature"
        },
        {
            "geometry": {
                "coordinates": [
                    -104.8319195,
                    39.7294319
                ],
                "type": "Point"
            },
            "properties": {
                "name": "Aurora",
                "draw_type": "symbol",
                "source": "city53",
                "image": "./Assignments/A04/assets/images/icons/city-15.svg"
            },
            "type": "Feature"
        },
        {
            "geometry": {
                "coordinates": [
                    -117.9145036,
                    33.8352932
                ],
                "type": "Point"
            },
            "properties": {
                "name": "Anaheim",
                "draw_type": "symbol",
                "source": "city54",
                "image": "./Assignments/A04/assets/images/icons/city-15.svg"
            },
            "type": "Feature"
        },
        {
            "geometry": {
                "coordinates": [
                    -117.8678338,
                    33.7455731
                ],
                "type": "Point"
            },
            "properties": {
                "name": "Santa Ana",
                "draw_type": "symbol",
                "source": "city55",
                "image": "./Assignments/A04/assets/images/icons/city-15.svg"
            },
            "type": "Feature"
        },
        {
            "geometry": {
                "coordinates": [
                    -90.19940419999999,
                    38.6270025
                ],
                "type": "Point"
            },
            "properties": {
                "name": "St. Louis",
                "draw_type": "symbol",
                "source": "city56",
                "image": "./Assignments/A04/assets/images/icons/city-15.svg"
            },
            "type": "Feature"
        },
        {
            "geometry": {
                "coordinates": [
                    -117.3961564,
                    33.9533487
                ],
                "type": "Point"
            },
            "properties": {
                "name": "Riverside",
                "draw_type": "symbol",
                "source": "city57",
                "image": "./Assignments/A04/assets/images/icons/city-15.svg"
            },
            "type": "Feature"
        },
        {
            "geometry": {
                "coordinates": [
                    -97.39638099999999,
                    27.8005828
                ],
                "type": "Point"
            },
            "properties": {
                "name": "Corpus Christi",
                "draw_type": "symbol",
                "source": "city58",
                "image": "./Assignments/A04/assets/images/icons/city-15.svg"
            },
            "type": "Feature"
        },
        {
            "geometry": {
                "coordinates": [
                    -84.5037164,
                    38.0405837
                ],
                "type": "Point"
            },
            "properties": {
                "name": "Lexington-Fayette",
                "draw_type": "symbol",
                "source": "city59",
                "image": "./Assignments/A04/assets/images/icons/city-15.svg"
            },
            "type": "Feature"
        },
        {
            "geometry": {
                "coordinates": [
                    -79.9958864,
                    40.44062479999999
                ],
                "type": "Point"
            },
            "properties": {
                "name": "Pittsburgh",
                "draw_type": "symbol",
                "source": "city60",
                "image": "./Assignments/A04/assets/images/icons/city-15.svg"
            },
            "type": "Feature"
        },
        {
            "geometry": {
                "coordinates": [
                    -121.2907796,
                    37.9577016
                ],
                "type": "Point"
            },
            "properties": {
                "name": "Stockton",
                "draw_type": "symbol",
                "source": "city61",
                "image": "./Assignments/A04/assets/images/icons/city-15.svg"
            },
            "type": "Feature"
        },
        {
            "geometry": {
                "coordinates": [
                    -84.5120196,
                    39.1031182
                ],
                "type": "Point"
            },
            "properties": {
                "name": "Cincinnati",
                "draw_type": "symbol",
                "source": "city62",
                "image": "./Assignments/A04/assets/images/icons/city-15.svg"
            },
            "type": "Feature"
        },
        {
            "geometry": {
                "coordinates": [
                    -93.0899578,
                    44.9537029
                ],
                "type": "Point"
            },
            "properties": {
                "name": "St. Paul",
                "draw_type": "symbol",
                "source": "city63",
                "image": "./Assignments/A04/assets/images/icons/city-15.svg"
            },
            "type": "Feature"
        },
        {
            "geometry": {
                "coordinates": [
                    -83.55521200000001,
                    41.6639383
                ],
                "type": "Point"
            },
            "properties": {
                "name": "Toledo",
                "draw_type": "symbol",
                "source": "city64",
                "image": "./Assignments/A04/assets/images/icons/city-15.svg"
            },
            "type": "Feature"
        },
        {
            "geometry": {
                "coordinates": [
                    -79.7919754,
                    36.0726354
                ],
                "type": "Point"
            },
            "properties": {
                "name": "Greensboro",
                "draw_type": "symbol",
                "source": "city65",
                "image": "./Assignments/A04/assets/images/icons/city-15.svg"
            },
            "type": "Feature"
        },
        {
            "geometry": {
                "coordinates": [
                    -74.1723667,
                    40.735657
                ],
                "type": "Point"
            },
            "properties": {
                "name": "Newark",
                "draw_type": "symbol",
                "source": "city66",
                "image": "./Assignments/A04/assets/images/icons/city-15.svg"
            },
            "type": "Feature"
        },
        {
            "geometry": {
                "coordinates": [
                    -96.6988856,
                    33.0198431
                ],
                "type": "Point"
            },
            "properties": {
                "name": "Plano",
                "draw_type": "symbol",
                "source": "city67",
                "image": "./Assignments/A04/assets/images/icons/city-15.svg"
            },
            "type": "Feature"
        },
        {
            "geometry": {
                "coordinates": [
                    -114.9817213,
                    36.0395247
                ],
                "type": "Point"
            },
            "properties": {
                "name": "Henderson",
                "draw_type": "symbol",
                "source": "city68",
                "image": "./Assignments/A04/assets/images/icons/city-15.svg"
            },
            "type": "Feature"
        },
        {
            "geometry": {
                "coordinates": [
                    -96.6851982,
                    40.8257625
                ],
                "type": "Point"
            },
            "properties": {
                "name": "Lincoln",
                "draw_type": "symbol",
                "source": "city69",
                "image": "./Assignments/A04/assets/images/icons/city-15.svg"
            },
            "type": "Feature"
        },
        {
            "geometry": {
                "coordinates": [
                    -78.8783689,
                    42.88644679999999
                ],
                "type": "Point"
            },
            "properties": {
                "name": "Buffalo",
                "draw_type": "symbol",
                "source": "city70",
                "image": "./Assignments/A04/assets/images/icons/city-15.svg"
            },
            "type": "Feature"
        },
        {
            "geometry": {
                "coordinates": [
                    -74.0776417,
                    40.72815749999999
                ],
                "type": "Point"
            },
            "properties": {
                "name": "Jersey City",
                "draw_type": "symbol",
                "source": "city71",
                "image": "./Assignments/A04/assets/images/icons/city-15.svg"
            },
            "type": "Feature"
        },
        {
            "geometry": {
                "coordinates": [
                    -117.0841955,
                    32.6400541
                ],
                "type": "Point"
            },
            "properties": {
                "name": "Chula Vista",
                "draw_type": "symbol",
                "source": "city72",
                "image": "./Assignments/A04/assets/images/icons/city-15.svg"
            },
            "type": "Feature"
        },
        {
            "geometry": {
                "coordinates": [
                    -85.1393513,
                    41.079273
                ],
                "type": "Point"
            },
            "properties": {
                "name": "Fort Wayne",
                "draw_type": "symbol",
                "source": "city73",
                "image": "./Assignments/A04/assets/images/icons/city-15.svg"
            },
            "type": "Feature"
        },
        {
            "geometry": {
                "coordinates": [
                    -81.3792365,
                    28.5383355
                ],
                "type": "Point"
            },
            "properties": {
                "name": "Orlando",
                "draw_type": "symbol",
                "source": "city74",
                "image": "./Assignments/A04/assets/images/icons/city-15.svg"
            },
            "type": "Feature"
        },
        {
            "geometry": {
                "coordinates": [
                    -82.64,
                    27.773056
                ],
                "type": "Point"
            },
            "properties": {
                "name": "St. Petersburg",
                "draw_type": "symbol",
                "source": "city75",
                "image": "./Assignments/A04/assets/images/icons/city-15.svg"
            },
            "type": "Feature"
        },
        {
            "geometry": {
                "coordinates": [
                    -111.8412502,
                    33.3061605
                ],
                "type": "Point"
            },
            "properties": {
                "name": "Chandler",
                "draw_type": "symbol",
                "source": "city76",
                "image": "./Assignments/A04/assets/images/icons/city-15.svg"
            },
            "type": "Feature"
        },
        {
            "geometry": {
                "coordinates": [
                    -99.48032409999999,
                    27.5305671
                ],
                "type": "Point"
            },
            "properties": {
                "name": "Laredo",
                "draw_type": "symbol",
                "source": "city77",
                "image": "./Assignments/A04/assets/images/icons/city-15.svg"
            },
            "type": "Feature"
        },
        {
            "geometry": {
                "coordinates": [
                    -76.28587259999999,
                    36.8507689
                ],
                "type": "Point"
            },
            "properties": {
                "name": "Norfolk",
                "draw_type": "symbol",
                "source": "city78",
                "image": "./Assignments/A04/assets/images/icons/city-15.svg"
            },
            "type": "Feature"
        },
        {
            "geometry": {
                "coordinates": [
                    -78.898619,
                    35.9940329
                ],
                "type": "Point"
            },
            "properties": {
                "name": "Durham",
                "draw_type": "symbol",
                "source": "city79",
                "image": "./Assignments/A04/assets/images/icons/city-15.svg"
            },
            "type": "Feature"
        },
        {
            "geometry": {
                "coordinates": [
                    -89.4012302,
                    43.0730517
                ],
                "type": "Point"
            },
            "properties": {
                "name": "Madison",
                "draw_type": "symbol",
                "source": "city80",
                "image": "./Assignments/A04/assets/images/icons/city-15.svg"
            },
            "type": "Feature"
        },
        {
            "geometry": {
                "coordinates": [
                    -101.8551665,
                    33.5778631
                ],
                "type": "Point"
            },
            "properties": {
                "name": "Lubbock",
                "draw_type": "symbol",
                "source": "city81",
                "image": "./Assignments/A04/assets/images/icons/city-15.svg"
            },
            "type": "Feature"
        },
        {
            "geometry": {
                "coordinates": [
                    -117.7946942,
                    33.6839473
                ],
                "type": "Point"
            },
            "properties": {
                "name": "Irvine",
                "draw_type": "symbol",
                "source": "city82",
                "image": "./Assignments/A04/assets/images/icons/city-15.svg"
            },
            "type": "Feature"
        },
        {
            "geometry": {
                "coordinates": [
                    -80.244216,
                    36.09985959999999
                ],
                "type": "Point"
            },
            "properties": {
                "name": "Winston-Salem",
                "draw_type": "symbol",
                "source": "city83",
                "image": "./Assignments/A04/assets/images/icons/city-15.svg"
            },
            "type": "Feature"
        },
        {
            "geometry": {
                "coordinates": [
                    -112.1859866,
                    33.5386523
                ],
                "type": "Point"
            },
            "properties": {
                "name": "Glendale",
                "draw_type": "symbol",
                "source": "city84",
                "image": "./Assignments/A04/assets/images/icons/city-15.svg"
            },
            "type": "Feature"
        },
        {
            "geometry": {
                "coordinates": [
                    -96.63888329999999,
                    32.912624
                ],
                "type": "Point"
            },
            "properties": {
                "name": "Garland",
                "draw_type": "symbol",
                "source": "city85",
                "image": "./Assignments/A04/assets/images/icons/city-15.svg"
            },
            "type": "Feature"
        },
        {
            "geometry": {
                "coordinates": [
                    -80.2781057,
                    25.8575963
                ],
                "type": "Point"
            },
            "properties": {
                "name": "Hialeah",
                "draw_type": "symbol",
                "source": "city86",
                "image": "./Assignments/A04/assets/images/icons/city-15.svg"
            },
            "type": "Feature"
        },
        {
            "geometry": {
                "coordinates": [
                    -119.8138027,
                    39.5296329
                ],
                "type": "Point"
            },
            "properties": {
                "name": "Reno",
                "draw_type": "symbol",
                "source": "city87",
                "image": "./Assignments/A04/assets/images/icons/city-15.svg"
            },
            "type": "Feature"
        },
        {
            "geometry": {
                "coordinates": [
                    -76.2874927,
                    36.7682088
                ],
                "type": "Point"
            },
            "properties": {
                "name": "Chesapeake",
                "draw_type": "symbol",
                "source": "city88",
                "image": "./Assignments/A04/assets/images/icons/city-15.svg"
            },
            "type": "Feature"
        },
        {
            "geometry": {
                "coordinates": [
                    -111.789027,
                    33.3528264
                ],
                "type": "Point"
            },
            "properties": {
                "name": "Gilbert",
                "draw_type": "symbol",
                "source": "city89",
                "image": "./Assignments/A04/assets/images/icons/city-15.svg"
            },
            "type": "Feature"
        },
        {
            "geometry": {
                "coordinates": [
                    -91.1403196,
                    30.4582829
                ],
                "type": "Point"
            },
            "properties": {
                "name": "Baton Rouge",
                "draw_type": "symbol",
                "source": "city90",
                "image": "./Assignments/A04/assets/images/icons/city-15.svg"
            },
            "type": "Feature"
        },
        {
            "geometry": {
                "coordinates": [
                    -96.9488945,
                    32.8140177
                ],
                "type": "Point"
            },
            "properties": {
                "name": "Irving",
                "draw_type": "symbol",
                "source": "city91",
                "image": "./Assignments/A04/assets/images/icons/city-15.svg"
            },
            "type": "Feature"
        },
        {
            "geometry": {
                "coordinates": [
                    -111.9260519,
                    33.4941704
                ],
                "type": "Point"
            },
            "properties": {
                "name": "Scottsdale",
                "draw_type": "symbol",
                "source": "city92",
                "image": "./Assignments/A04/assets/images/icons/city-15.svg"
            },
            "type": "Feature"
        },
        {
            "geometry": {
                "coordinates": [
                    -115.1175013,
                    36.1988592
                ],
                "type": "Point"
            },
            "properties": {
                "name": "North Las Vegas",
                "draw_type": "symbol",
                "source": "city93",
                "image": "./Assignments/A04/assets/images/icons/city-15.svg"
            },
            "type": "Feature"
        },
        {
            "geometry": {
                "coordinates": [
                    -121.9885719,
                    37.5482697
                ],
                "type": "Point"
            },
            "properties": {
                "name": "Fremont",
                "draw_type": "symbol",
                "source": "city94",
                "image": "./Assignments/A04/assets/images/icons/city-15.svg"
            },
            "type": "Feature"
        },
        {
            "geometry": {
                "coordinates": [
                    -116.2146068,
                    43.6187102
                ],
                "type": "Point"
            },
            "properties": {
                "name": "Boise City",
                "draw_type": "symbol",
                "source": "city95",
                "image": "./Assignments/A04/assets/images/icons/city-15.svg"
            },
            "type": "Feature"
        },
        {
            "geometry": {
                "coordinates": [
                    -77.4360481,
                    37.5407246
                ],
                "type": "Point"
            },
            "properties": {
                "name": "Richmond",
                "draw_type": "symbol",
                "source": "city96",
                "image": "./Assignments/A04/assets/images/icons/city-15.svg"
            },
            "type": "Feature"
        },
        {
            "geometry": {
                "coordinates": [
                    -117.2897652,
                    34.1083449
                ],
                "type": "Point"
            },
            "properties": {
                "name": "San Bernardino",
                "draw_type": "symbol",
                "source": "city97",
                "image": "./Assignments/A04/assets/images/icons/city-15.svg"
            },
            "type": "Feature"
        },
        {
            "geometry": {
                "coordinates": [
                    -86.80248999999999,
                    33.5206608
                ],
                "type": "Point"
            },
            "properties": {
                "name": "Birmingham",
                "draw_type": "symbol",
                "source": "city98",
                "image": "./Assignments/A04/assets/images/icons/city-15.svg"
            },
            "type": "Feature"
        },
        {
            "geometry": {
                "coordinates": [
                    -117.4260466,
                    47.6587802
                ],
                "type": "Point"
            },
            "properties": {
                "name": "Spokane",
                "draw_type": "symbol",
                "source": "city99",
                "image": "./Assignments/A04/assets/images/icons/city-15.svg"
            },
            "type": "Feature"
        },
        {
            "geometry": {
                "coordinates": [
                    -77.6109219,
                    43.16103
                ],
                "type": "Point"
            },
            "properties": {
                "name": "Rochester",
                "draw_type": "symbol",
                "source": "city100",
                "image": "./Assignments/A04/assets/images/icons/city-15.svg"
            },
            "type": "Feature"
        },
        {
            "geometry": {
                "coordinates": [
                    -93.6091064,
                    41.6005448
                ],
                "type": "Point"
            },
            "properties": {
                "name": "Des Moines",
                "draw_type": "symbol",
                "source": "city101",
                "image": "./Assignments/A04/assets/images/icons/city-15.svg"
            },
            "type": "Feature"
        },
        {
            "geometry": {
                "coordinates": [
                    -120.9968782,
                    37.63909719999999
                ],
                "type": "Point"
            },
            "properties": {
                "name": "Modesto",
                "draw_type": "symbol",
                "source": "city102",
                "image": "./Assignments/A04/assets/images/icons/city-15.svg"
            },
            "type": "Feature"
        },
        {
            "geometry": {
                "coordinates": [
                    -78.87835849999999,
                    35.0526641
                ],
                "type": "Point"
            },
            "properties": {
                "name": "Fayetteville",
                "draw_type": "symbol",
                "source": "city103",
                "image": "./Assignments/A04/assets/images/icons/city-15.svg"
            },
            "type": "Feature"
        },
        {
            "geometry": {
                "coordinates": [
                    -122.4442906,
                    47.2528768
                ],
                "type": "Point"
            },
            "properties": {
                "name": "Tacoma",
                "draw_type": "symbol",
                "source": "city104",
                "image": "./Assignments/A04/assets/images/icons/city-15.svg"
            },
            "type": "Feature"
        },
        {
            "geometry": {
                "coordinates": [
                    -119.1770516,
                    34.1975048
                ],
                "type": "Point"
            },
            "properties": {
                "name": "Oxnard",
                "draw_type": "symbol",
                "source": "city105",
                "image": "./Assignments/A04/assets/images/icons/city-15.svg"
            },
            "type": "Feature"
        },
        {
            "geometry": {
                "coordinates": [
                    -117.435048,
                    34.0922335
                ],
                "type": "Point"
            },
            "properties": {
                "name": "Fontana",
                "draw_type": "symbol",
                "source": "city106",
                "image": "./Assignments/A04/assets/images/icons/city-15.svg"
            },
            "type": "Feature"
        },
        {
            "geometry": {
                "coordinates": [
                    -84.9877094,
                    32.4609764
                ],
                "type": "Point"
            },
            "properties": {
                "name": "Columbus",
                "draw_type": "symbol",
                "source": "city107",
                "image": "./Assignments/A04/assets/images/icons/city-15.svg"
            },
            "type": "Feature"
        },
        {
            "geometry": {
                "coordinates": [
                    -86.2999689,
                    32.3668052
                ],
                "type": "Point"
            },
            "properties": {
                "name": "Montgomery",
                "draw_type": "symbol",
                "source": "city108",
                "image": "./Assignments/A04/assets/images/icons/city-15.svg"
            },
            "type": "Feature"
        },
        {
            "geometry": {
                "coordinates": [
                    -117.2296717,
                    33.9424658
                ],
                "type": "Point"
            },
            "properties": {
                "name": "Moreno Valley",
                "draw_type": "symbol",
                "source": "city109",
                "image": "./Assignments/A04/assets/images/icons/city-15.svg"
            },
            "type": "Feature"
        },
        {
            "geometry": {
                "coordinates": [
                    -93.7501789,
                    32.5251516
                ],
                "type": "Point"
            },
            "properties": {
                "name": "Shreveport",
                "draw_type": "symbol",
                "source": "city110",
                "image": "./Assignments/A04/assets/images/icons/city-15.svg"
            },
            "type": "Feature"
        },
        {
            "geometry": {
                "coordinates": [
                    -88.32007150000001,
                    41.7605849
                ],
                "type": "Point"
            },
            "properties": {
                "name": "Aurora",
                "draw_type": "symbol",
                "source": "city111",
                "image": "./Assignments/A04/assets/images/icons/city-15.svg"
            },
            "type": "Feature"
        },
        {
            "geometry": {
                "coordinates": [
                    -73.89874689999999,
                    40.9312099
                ],
                "type": "Point"
            },
            "properties": {
                "name": "Yonkers",
                "draw_type": "symbol",
                "source": "city112",
                "image": "./Assignments/A04/assets/images/icons/city-15.svg"
            },
            "type": "Feature"
        },
        {
            "geometry": {
                "coordinates": [
                    -81.51900529999999,
                    41.0814447
                ],
                "type": "Point"
            },
            "properties": {
                "name": "Akron",
                "draw_type": "symbol",
                "source": "city113",
                "image": "./Assignments/A04/assets/images/icons/city-15.svg"
            },
            "type": "Feature"
        },
        {
            "geometry": {
                "coordinates": [
                    -117.9992265,
                    33.660297
                ],
                "type": "Point"
            },
            "properties": {
                "name": "Huntington Beach",
                "draw_type": "symbol",
                "source": "city114",
                "image": "./Assignments/A04/assets/images/icons/city-15.svg"
            },
            "type": "Feature"
        },
        {
            "geometry": {
                "coordinates": [
                    -92.28959479999999,
                    34.7464809
                ],
                "type": "Point"
            },
            "properties": {
                "name": "Little Rock",
                "draw_type": "symbol",
                "source": "city115",
                "image": "./Assignments/A04/assets/images/icons/city-15.svg"
            },
            "type": "Feature"
        },
        {
            "geometry": {
                "coordinates": [
                    -82.0105148,
                    33.4734978
                ],
                "type": "Point"
            },
            "properties": {
                "name": "Augusta-Richmond County",
                "draw_type": "symbol",
                "source": "city116",
                "image": "./Assignments/A04/assets/images/icons/city-15.svg"
            },
            "type": "Feature"
        },
        {
            "geometry": {
                "coordinates": [
                    -101.8312969,
                    35.2219971
                ],
                "type": "Point"
            },
            "properties": {
                "name": "Amarillo",
                "draw_type": "symbol",
                "source": "city117",
                "image": "./Assignments/A04/assets/images/icons/city-15.svg"
            },
            "type": "Feature"
        },
        {
            "geometry": {
                "coordinates": [
                    -118.255075,
                    34.1425078
                ],
                "type": "Point"
            },
            "properties": {
                "name": "Glendale",
                "draw_type": "symbol",
                "source": "city118",
                "image": "./Assignments/A04/assets/images/icons/city-15.svg"
            },
            "type": "Feature"
        },
        {
            "geometry": {
                "coordinates": [
                    -88.0398912,
                    30.6953657
                ],
                "type": "Point"
            },
            "properties": {
                "name": "Mobile",
                "draw_type": "symbol",
                "source": "city119",
                "image": "./Assignments/A04/assets/images/icons/city-15.svg"
            },
            "type": "Feature"
        },
        {
            "geometry": {
                "coordinates": [
                    -85.6680863,
                    42.9633599
                ],
                "type": "Point"
            },
            "properties": {
                "name": "Grand Rapids",
                "draw_type": "symbol",
                "source": "city120",
                "image": "./Assignments/A04/assets/images/icons/city-15.svg"
            },
            "type": "Feature"
        },
        {
            "geometry": {
                "coordinates": [
                    -111.8910474,
                    40.7607793
                ],
                "type": "Point"
            },
            "properties": {
                "name": "Salt Lake City",
                "draw_type": "symbol",
                "source": "city121",
                "image": "./Assignments/A04/assets/images/icons/city-15.svg"
            },
            "type": "Feature"
        },
        {
            "geometry": {
                "coordinates": [
                    -84.28073289999999,
                    30.4382559
                ],
                "type": "Point"
            },
            "properties": {
                "name": "Tallahassee",
                "draw_type": "symbol",
                "source": "city122",
                "image": "./Assignments/A04/assets/images/icons/city-15.svg"
            },
            "type": "Feature"
        },
        {
            "geometry": {
                "coordinates": [
                    -86.5861037,
                    34.7303688
                ],
                "type": "Point"
            },
            "properties": {
                "name": "Huntsville",
                "draw_type": "symbol",
                "source": "city123",
                "image": "./Assignments/A04/assets/images/icons/city-15.svg"
            },
            "type": "Feature"
        },
        {
            "geometry": {
                "coordinates": [
                    -96.99778459999999,
                    32.7459645
                ],
                "type": "Point"
            },
            "properties": {
                "name": "Grand Prairie",
                "draw_type": "symbol",
                "source": "city124",
                "image": "./Assignments/A04/assets/images/icons/city-15.svg"
            },
            "type": "Feature"
        },
        {
            "geometry": {
                "coordinates": [
                    -83.9207392,
                    35.9606384
                ],
                "type": "Point"
            },
            "properties": {
                "name": "Knoxville",
                "draw_type": "symbol",
                "source": "city125",
                "image": "./Assignments/A04/assets/images/icons/city-15.svg"
            },
            "type": "Feature"
        },
        {
            "geometry": {
                "coordinates": [
                    -71.8022934,
                    42.2625932
                ],
                "type": "Point"
            },
            "properties": {
                "name": "Worcester",
                "draw_type": "symbol",
                "source": "city126",
                "image": "./Assignments/A04/assets/images/icons/city-15.svg"
            },
            "type": "Feature"
        },
        {
            "geometry": {
                "coordinates": [
                    -76.4730122,
                    37.0870821
                ],
                "type": "Point"
            },
            "properties": {
                "name": "Newport News",
                "draw_type": "symbol",
                "source": "city127",
                "image": "./Assignments/A04/assets/images/icons/city-15.svg"
            },
            "type": "Feature"
        },
        {
            "geometry": {
                "coordinates": [
                    -97.4974838,
                    25.9017472
                ],
                "type": "Point"
            },
            "properties": {
                "name": "Brownsville",
                "draw_type": "symbol",
                "source": "city128",
                "image": "./Assignments/A04/assets/images/icons/city-15.svg"
            },
            "type": "Feature"
        },
        {
            "geometry": {
                "coordinates": [
                    -94.6707917,
                    38.9822282
                ],
                "type": "Point"
            },
            "properties": {
                "name": "Overland Park",
                "draw_type": "symbol",
                "source": "city129",
                "image": "./Assignments/A04/assets/images/icons/city-15.svg"
            },
            "type": "Feature"
        },
        {
            "geometry": {
                "coordinates": [
                    -118.542586,
                    34.3916641
                ],
                "type": "Point"
            },
            "properties": {
                "name": "Santa Clarita",
                "draw_type": "symbol",
                "source": "city130",
                "image": "./Assignments/A04/assets/images/icons/city-15.svg"
            },
            "type": "Feature"
        },
        {
            "geometry": {
                "coordinates": [
                    -71.4128343,
                    41.8239891
                ],
                "type": "Point"
            },
            "properties": {
                "name": "Providence",
                "draw_type": "symbol",
                "source": "city131",
                "image": "./Assignments/A04/assets/images/icons/city-15.svg"
            },
            "type": "Feature"
        },
        {
            "geometry": {
                "coordinates": [
                    -117.9414477,
                    33.7739053
                ],
                "type": "Point"
            },
            "properties": {
                "name": "Garden Grove",
                "draw_type": "symbol",
                "source": "city132",
                "image": "./Assignments/A04/assets/images/icons/city-15.svg"
            },
            "type": "Feature"
        },
        {
            "geometry": {
                "coordinates": [
                    -85.3096801,
                    35.0456297
                ],
                "type": "Point"
            },
            "properties": {
                "name": "Chattanooga",
                "draw_type": "symbol",
                "source": "city133",
                "image": "./Assignments/A04/assets/images/icons/city-15.svg"
            },
            "type": "Feature"
        },
        {
            "geometry": {
                "coordinates": [
                    -117.3794834,
                    33.1958696
                ],
                "type": "Point"
            },
            "properties": {
                "name": "Oceanside",
                "draw_type": "symbol",
                "source": "city134",
                "image": "./Assignments/A04/assets/images/icons/city-15.svg"
            },
            "type": "Feature"
        },
        {
            "geometry": {
                "coordinates": [
                    -90.1848103,
                    32.2987573
                ],
                "type": "Point"
            },
            "properties": {
                "name": "Jackson",
                "draw_type": "symbol",
                "source": "city135",
                "image": "./Assignments/A04/assets/images/icons/city-15.svg"
            },
            "type": "Feature"
        },
        {
            "geometry": {
                "coordinates": [
                    -80.13731740000001,
                    26.1224386
                ],
                "type": "Point"
            },
            "properties": {
                "name": "Fort Lauderdale",
                "draw_type": "symbol",
                "source": "city136",
                "image": "./Assignments/A04/assets/images/icons/city-15.svg"
            },
            "type": "Feature"
        },
        {
            "geometry": {
                "coordinates": [
                    -122.7140548,
                    38.440429
                ],
                "type": "Point"
            },
            "properties": {
                "name": "Santa Rosa",
                "draw_type": "symbol",
                "source": "city137",
                "image": "./Assignments/A04/assets/images/icons/city-15.svg"
            },
            "type": "Feature"
        },
        {
            "geometry": {
                "coordinates": [
                    -117.5931084,
                    34.10639889999999
                ],
                "type": "Point"
            },
            "properties": {
                "name": "Rancho Cucamonga",
                "draw_type": "symbol",
                "source": "city138",
                "image": "./Assignments/A04/assets/images/icons/city-15.svg"
            },
            "type": "Feature"
        },
        {
            "geometry": {
                "coordinates": [
                    -80.3582261,
                    27.2730492
                ],
                "type": "Point"
            },
            "properties": {
                "name": "Port St. Lucie",
                "draw_type": "symbol",
                "source": "city139",
                "image": "./Assignments/A04/assets/images/icons/city-15.svg"
            },
            "type": "Feature"
        },
        {
            "geometry": {
                "coordinates": [
                    -111.9400054,
                    33.4255104
                ],
                "type": "Point"
            },
            "properties": {
                "name": "Tempe",
                "draw_type": "symbol",
                "source": "city140",
                "image": "./Assignments/A04/assets/images/icons/city-15.svg"
            },
            "type": "Feature"
        },
        {
            "geometry": {
                "coordinates": [
                    -117.6508876,
                    34.0633443
                ],
                "type": "Point"
            },
            "properties": {
                "name": "Ontario",
                "draw_type": "symbol",
                "source": "city141",
                "image": "./Assignments/A04/assets/images/icons/city-15.svg"
            },
            "type": "Feature"
        },
        {
            "geometry": {
                "coordinates": [
                    -122.6614861,
                    45.6387281
                ],
                "type": "Point"
            },
            "properties": {
                "name": "Vancouver",
                "draw_type": "symbol",
                "source": "city142",
                "image": "./Assignments/A04/assets/images/icons/city-15.svg"
            },
            "type": "Feature"
        },
        {
            "geometry": {
                "coordinates": [
                    -81.9495331,
                    26.5628537
                ],
                "type": "Point"
            },
            "properties": {
                "name": "Cape Coral",
                "draw_type": "symbol",
                "source": "city143",
                "image": "./Assignments/A04/assets/images/icons/city-15.svg"
            },
            "type": "Feature"
        },
        {
            "geometry": {
                "coordinates": [
                    -96.73110340000001,
                    43.5445959
                ],
                "type": "Point"
            },
            "properties": {
                "name": "Sioux Falls",
                "draw_type": "symbol",
                "source": "city144",
                "image": "./Assignments/A04/assets/images/icons/city-15.svg"
            },
            "type": "Feature"
        },
        {
            "geometry": {
                "coordinates": [
                    -93.29229889999999,
                    37.2089572
                ],
                "type": "Point"
            },
            "properties": {
                "name": "Springfield",
                "draw_type": "symbol",
                "source": "city145",
                "image": "./Assignments/A04/assets/images/icons/city-15.svg"
            },
            "type": "Feature"
        },
        {
            "geometry": {
                "coordinates": [
                    -112.2373779,
                    33.5805955
                ],
                "type": "Point"
            },
            "properties": {
                "name": "Peoria",
                "draw_type": "symbol",
                "source": "city146",
                "image": "./Assignments/A04/assets/images/icons/city-15.svg"
            },
            "type": "Feature"
        },
        {
            "geometry": {
                "coordinates": [
                    -80.2962555,
                    26.007765
                ],
                "type": "Point"
            },
            "properties": {
                "name": "Pembroke Pines",
                "draw_type": "symbol",
                "source": "city147",
                "image": "./Assignments/A04/assets/images/icons/city-15.svg"
            },
            "type": "Feature"
        },
        {
            "geometry": {
                "coordinates": [
                    -121.3716178,
                    38.4087993
                ],
                "type": "Point"
            },
            "properties": {
                "name": "Elk Grove",
                "draw_type": "symbol",
                "source": "city148",
                "image": "./Assignments/A04/assets/images/icons/city-15.svg"
            },
            "type": "Feature"
        },
        {
            "geometry": {
                "coordinates": [
                    -123.0350963,
                    44.9428975
                ],
                "type": "Point"
            },
            "properties": {
                "name": "Salem",
                "draw_type": "symbol",
                "source": "city149",
                "image": "./Assignments/A04/assets/images/icons/city-15.svg"
            },
            "type": "Feature"
        },
        {
            "geometry": {
                "coordinates": [
                    -118.1541632,
                    34.6867846
                ],
                "type": "Point"
            },
            "properties": {
                "name": "Lancaster",
                "draw_type": "symbol",
                "source": "city150",
                "image": "./Assignments/A04/assets/images/icons/city-15.svg"
            },
            "type": "Feature"
        },
        {
            "geometry": {
                "coordinates": [
                    -117.5664384,
                    33.8752935
                ],
                "type": "Point"
            },
            "properties": {
                "name": "Corona",
                "draw_type": "symbol",
                "source": "city151",
                "image": "./Assignments/A04/assets/images/icons/city-15.svg"
            },
            "type": "Feature"
        },
        {
            "geometry": {
                "coordinates": [
                    -123.0867536,
                    44.0520691
                ],
                "type": "Point"
            },
            "properties": {
                "name": "Eugene",
                "draw_type": "symbol",
                "source": "city152",
                "image": "./Assignments/A04/assets/images/icons/city-15.svg"
            },
            "type": "Feature"
        },
        {
            "geometry": {
                "coordinates": [
                    -118.1164613,
                    34.5794343
                ],
                "type": "Point"
            },
            "properties": {
                "name": "Palmdale",
                "draw_type": "symbol",
                "source": "city153",
                "image": "./Assignments/A04/assets/images/icons/city-15.svg"
            },
            "type": "Feature"
        },
        {
            "geometry": {
                "coordinates": [
                    -121.6555013,
                    36.6777372
                ],
                "type": "Point"
            },
            "properties": {
                "name": "Salinas",
                "draw_type": "symbol",
                "source": "city154",
                "image": "./Assignments/A04/assets/images/icons/city-15.svg"
            },
            "type": "Feature"
        },
        {
            "geometry": {
                "coordinates": [
                    -72.589811,
                    42.1014831
                ],
                "type": "Point"
            },
            "properties": {
                "name": "Springfield",
                "draw_type": "symbol",
                "source": "city155",
                "image": "./Assignments/A04/assets/images/icons/city-15.svg"
            },
            "type": "Feature"
        },
        {
            "geometry": {
                "coordinates": [
                    -95.2091006,
                    29.6910625
                ],
                "type": "Point"
            },
            "properties": {
                "name": "Pasadena",
                "draw_type": "symbol",
                "source": "city156",
                "image": "./Assignments/A04/assets/images/icons/city-15.svg"
            },
            "type": "Feature"
        },
        {
            "geometry": {
                "coordinates": [
                    -105.084423,
                    40.5852602
                ],
                "type": "Point"
            },
            "properties": {
                "name": "Fort Collins",
                "draw_type": "symbol",
                "source": "city157",
                "image": "./Assignments/A04/assets/images/icons/city-15.svg"
            },
            "type": "Feature"
        },
        {
            "geometry": {
                "coordinates": [
                    -122.0807964,
                    37.6688205
                ],
                "type": "Point"
            },
            "properties": {
                "name": "Hayward",
                "draw_type": "symbol",
                "source": "city158",
                "image": "./Assignments/A04/assets/images/icons/city-15.svg"
            },
            "type": "Feature"
        },
        {
            "geometry": {
                "coordinates": [
                    -117.7499909,
                    34.055103
                ],
                "type": "Point"
            },
            "properties": {
                "name": "Pomona",
                "draw_type": "symbol",
                "source": "city159",
                "image": "./Assignments/A04/assets/images/icons/city-15.svg"
            },
            "type": "Feature"
        },
        {
            "geometry": {
                "coordinates": [
                    -78.7811169,
                    35.79154
                ],
                "type": "Point"
            },
            "properties": {
                "name": "Cary",
                "draw_type": "symbol",
                "source": "city160",
                "image": "./Assignments/A04/assets/images/icons/city-15.svg"
            },
            "type": "Feature"
        },
        {
            "geometry": {
                "coordinates": [
                    -89.0939952,
                    42.2711311
                ],
                "type": "Point"
            },
            "properties": {
                "name": "Rockford",
                "draw_type": "symbol",
                "source": "city161",
                "image": "./Assignments/A04/assets/images/icons/city-15.svg"
            },
            "type": "Feature"
        },
        {
            "geometry": {
                "coordinates": [
                    -77.0469214,
                    38.8048355
                ],
                "type": "Point"
            },
            "properties": {
                "name": "Alexandria",
                "draw_type": "symbol",
                "source": "city162",
                "image": "./Assignments/A04/assets/images/icons/city-15.svg"
            },
            "type": "Feature"
        },
        {
            "geometry": {
                "coordinates": [
                    -117.086421,
                    33.1192068
                ],
                "type": "Point"
            },
            "properties": {
                "name": "Escondido",
                "draw_type": "symbol",
                "source": "city163",
                "image": "./Assignments/A04/assets/images/icons/city-15.svg"
            },
            "type": "Feature"
        },
        {
            "geometry": {
                "coordinates": [
                    -96.6397822,
                    33.1972465
                ],
                "type": "Point"
            },
            "properties": {
                "name": "McKinney",
                "draw_type": "symbol",
                "source": "city164",
                "image": "./Assignments/A04/assets/images/icons/city-15.svg"
            },
            "type": "Feature"
        },
        {
            "geometry": {
                "coordinates": [
                    -94.6274636,
                    39.114053
                ],
                "type": "Point"
            },
            "properties": {
                "name": "Kansas City",
                "draw_type": "symbol",
                "source": "city165",
                "image": "./Assignments/A04/assets/images/icons/city-15.svg"
            },
            "type": "Feature"
        },
        {
            "geometry": {
                "coordinates": [
                    -88.0817251,
                    41.525031
                ],
                "type": "Point"
            },
            "properties": {
                "name": "Joliet",
                "draw_type": "symbol",
                "source": "city166",
                "image": "./Assignments/A04/assets/images/icons/city-15.svg"
            },
            "type": "Feature"
        },
        {
            "geometry": {
                "coordinates": [
                    -122.0363496,
                    37.36883
                ],
                "type": "Point"
            },
            "properties": {
                "name": "Sunnyvale",
                "draw_type": "symbol",
                "source": "city167",
                "image": "./Assignments/A04/assets/images/icons/city-15.svg"
            },
            "type": "Feature"
        },
        {
            "geometry": {
                "coordinates": [
                    -118.3406288,
                    33.8358492
                ],
                "type": "Point"
            },
            "properties": {
                "name": "Torrance",
                "draw_type": "symbol",
                "source": "city168",
                "image": "./Assignments/A04/assets/images/icons/city-15.svg"
            },
            "type": "Feature"
        },
        {
            "geometry": {
                "coordinates": [
                    -73.19517669999999,
                    41.1865478
                ],
                "type": "Point"
            },
            "properties": {
                "name": "Bridgeport",
                "draw_type": "symbol",
                "source": "city169",
                "image": "./Assignments/A04/assets/images/icons/city-15.svg"
            },
            "type": "Feature"
        },
        {
            "geometry": {
                "coordinates": [
                    -105.0813734,
                    39.7047095
                ],
                "type": "Point"
            },
            "properties": {
                "name": "Lakewood",
                "draw_type": "symbol",
                "source": "city170",
                "image": "./Assignments/A04/assets/images/icons/city-15.svg"
            },
            "type": "Feature"
        },
        {
            "geometry": {
                "coordinates": [
                    -80.1494901,
                    26.0112014
                ],
                "type": "Point"
            },
            "properties": {
                "name": "Hollywood",
                "draw_type": "symbol",
                "source": "city171",
                "image": "./Assignments/A04/assets/images/icons/city-15.svg"
            },
            "type": "Feature"
        },
        {
            "geometry": {
                "coordinates": [
                    -74.17181099999999,
                    40.9167654
                ],
                "type": "Point"
            },
            "properties": {
                "name": "Paterson",
                "draw_type": "symbol",
                "source": "city172",
                "image": "./Assignments/A04/assets/images/icons/city-15.svg"
            },
            "type": "Feature"
        },
        {
            "geometry": {
                "coordinates": [
                    -88.1535352,
                    41.7508391
                ],
                "type": "Point"
            },
            "properties": {
                "name": "Naperville",
                "draw_type": "symbol",
                "source": "city173",
                "image": "./Assignments/A04/assets/images/icons/city-15.svg"
            },
            "type": "Feature"
        },
        {
            "geometry": {
                "coordinates": [
                    -76.14742439999999,
                    43.0481221
                ],
                "type": "Point"
            },
            "properties": {
                "name": "Syracuse",
                "draw_type": "symbol",
                "source": "city174",
                "image": "./Assignments/A04/assets/images/icons/city-15.svg"
            },
            "type": "Feature"
        },
        {
            "geometry": {
                "coordinates": [
                    -96.5991593,
                    32.76679550000001
                ],
                "type": "Point"
            },
            "properties": {
                "name": "Mesquite",
                "draw_type": "symbol",
                "source": "city175",
                "image": "./Assignments/A04/assets/images/icons/city-15.svg"
            },
            "type": "Feature"
        },
        {
            "geometry": {
                "coordinates": [
                    -84.1916069,
                    39.7589478
                ],
                "type": "Point"
            },
            "properties": {
                "name": "Dayton",
                "draw_type": "symbol",
                "source": "city176",
                "image": "./Assignments/A04/assets/images/icons/city-15.svg"
            },
            "type": "Feature"
        },
        {
            "geometry": {
                "coordinates": [
                    -81.09983419999999,
                    32.0835407
                ],
                "type": "Point"
            },
            "properties": {
                "name": "Savannah",
                "draw_type": "symbol",
                "source": "city177",
                "image": "./Assignments/A04/assets/images/icons/city-15.svg"
            },
            "type": "Feature"
        },
        {
            "geometry": {
                "coordinates": [
                    -87.3594528,
                    36.5297706
                ],
                "type": "Point"
            },
            "properties": {
                "name": "Clarksville",
                "draw_type": "symbol",
                "source": "city178",
                "image": "./Assignments/A04/assets/images/icons/city-15.svg"
            },
            "type": "Feature"
        },
        {
            "geometry": {
                "coordinates": [
                    -117.8531119,
                    33.7877944
                ],
                "type": "Point"
            },
            "properties": {
                "name": "Orange",
                "draw_type": "symbol",
                "source": "city179",
                "image": "./Assignments/A04/assets/images/icons/city-15.svg"
            },
            "type": "Feature"
        },
        {
            "geometry": {
                "coordinates": [
                    -118.1445155,
                    34.1477849
                ],
                "type": "Point"
            },
            "properties": {
                "name": "Pasadena",
                "draw_type": "symbol",
                "source": "city180",
                "image": "./Assignments/A04/assets/images/icons/city-15.svg"
            },
            "type": "Feature"
        },
        {
            "geometry": {
                "coordinates": [
                    -117.9242966,
                    33.8703596
                ],
                "type": "Point"
            },
            "properties": {
                "name": "Fullerton",
                "draw_type": "symbol",
                "source": "city181",
                "image": "./Assignments/A04/assets/images/icons/city-15.svg"
            },
            "type": "Feature"
        },
        {
            "geometry": {
                "coordinates": [
                    -97.72779589999999,
                    31.1171194
                ],
                "type": "Point"
            },
            "properties": {
                "name": "Killeen",
                "draw_type": "symbol",
                "source": "city182",
                "image": "./Assignments/A04/assets/images/icons/city-15.svg"
            },
            "type": "Feature"
        },
        {
            "geometry": {
                "coordinates": [
                    -96.82361159999999,
                    33.1506744
                ],
                "type": "Point"
            },
            "properties": {
                "name": "Frisco",
                "draw_type": "symbol",
                "source": "city183",
                "image": "./Assignments/A04/assets/images/icons/city-15.svg"
            },
            "type": "Feature"
        },
        {
            "geometry": {
                "coordinates": [
                    -76.34522179999999,
                    37.0298687
                ],
                "type": "Point"
            },
            "properties": {
                "name": "Hampton",
                "draw_type": "symbol",
                "source": "city184",
                "image": "./Assignments/A04/assets/images/icons/city-15.svg"
            },
            "type": "Feature"
        },
        {
            "geometry": {
                "coordinates": [
                    -98.23001239999999,
                    26.2034071
                ],
                "type": "Point"
            },
            "properties": {
                "name": "McAllen",
                "draw_type": "symbol",
                "source": "city185",
                "image": "./Assignments/A04/assets/images/icons/city-15.svg"
            },
            "type": "Feature"
        },
        {
            "geometry": {
                "coordinates": [
                    -83.01465259999999,
                    42.5144566
                ],
                "type": "Point"
            },
            "properties": {
                "name": "Warren",
                "draw_type": "symbol",
                "source": "city186",
                "image": "./Assignments/A04/assets/images/icons/city-15.svg"
            },
            "type": "Feature"
        },
        {
            "geometry": {
                "coordinates": [
                    -122.2006786,
                    47.610377
                ],
                "type": "Point"
            },
            "properties": {
                "name": "Bellevue",
                "draw_type": "symbol",
                "source": "city187",
                "image": "./Assignments/A04/assets/images/icons/city-15.svg"
            },
            "type": "Feature"
        },
        {
            "geometry": {
                "coordinates": [
                    -112.0010501,
                    40.6916132
                ],
                "type": "Point"
            },
            "properties": {
                "name": "West Valley City",
                "draw_type": "symbol",
                "source": "city188",
                "image": "./Assignments/A04/assets/images/icons/city-15.svg"
            },
            "type": "Feature"
        },
        {
            "geometry": {
                "coordinates": [
                    -81.0348144,
                    34.0007104
                ],
                "type": "Point"
            },
            "properties": {
                "name": "Columbia",
                "draw_type": "symbol",
                "source": "city189",
                "image": "./Assignments/A04/assets/images/icons/city-15.svg"
            },
            "type": "Feature"
        },
        {
            "geometry": {
                "coordinates": [
                    -94.81912849999999,
                    38.8813958
                ],
                "type": "Point"
            },
            "properties": {
                "name": "Olathe",
                "draw_type": "symbol",
                "source": "city190",
                "image": "./Assignments/A04/assets/images/icons/city-15.svg"
            },
            "type": "Feature"
        },
        {
            "geometry": {
                "coordinates": [
                    -83.0302033,
                    42.5803122
                ],
                "type": "Point"
            },
            "properties": {
                "name": "Sterling Heights",
                "draw_type": "symbol",
                "source": "city191",
                "image": "./Assignments/A04/assets/images/icons/city-15.svg"
            },
            "type": "Feature"
        },
        {
            "geometry": {
                "coordinates": [
                    -72.9278835,
                    41.308274
                ],
                "type": "Point"
            },
            "properties": {
                "name": "New Haven",
                "draw_type": "symbol",
                "source": "city192",
                "image": "./Assignments/A04/assets/images/icons/city-15.svg"
            },
            "type": "Feature"
        },
        {
            "geometry": {
                "coordinates": [
                    -80.30356019999999,
                    25.9860762
                ],
                "type": "Point"
            },
            "properties": {
                "name": "Miramar",
                "draw_type": "symbol",
                "source": "city193",
                "image": "./Assignments/A04/assets/images/icons/city-15.svg"
            },
            "type": "Feature"
        },
        {
            "geometry": {
                "coordinates": [
                    -97.1466695,
                    31.549333
                ],
                "type": "Point"
            },
            "properties": {
                "name": "Waco",
                "draw_type": "symbol",
                "source": "city194",
                "image": "./Assignments/A04/assets/images/icons/city-15.svg"
            },
            "type": "Feature"
        },
        {
            "geometry": {
                "coordinates": [
                    -118.8375937,
                    34.1705609
                ],
                "type": "Point"
            },
            "properties": {
                "name": "Thousand Oaks",
                "draw_type": "symbol",
                "source": "city195",
                "image": "./Assignments/A04/assets/images/icons/city-15.svg"
            },
            "type": "Feature"
        },
        {
            "geometry": {
                "coordinates": [
                    -91.6656232,
                    41.9778795
                ],
                "type": "Point"
            },
            "properties": {
                "name": "Cedar Rapids",
                "draw_type": "symbol",
                "source": "city196",
                "image": "./Assignments/A04/assets/images/icons/city-15.svg"
            },
            "type": "Feature"
        },
        {
            "geometry": {
                "coordinates": [
                    -79.93105120000001,
                    32.7764749
                ],
                "type": "Point"
            },
            "properties": {
                "name": "Charleston",
                "draw_type": "symbol",
                "source": "city197",
                "image": "./Assignments/A04/assets/images/icons/city-15.svg"
            },
            "type": "Feature"
        },
        {
            "geometry": {
                "coordinates": [
                    -119.2920585,
                    36.3302284
                ],
                "type": "Point"
            },
            "properties": {
                "name": "Visalia",
                "draw_type": "symbol",
                "source": "city198",
                "image": "./Assignments/A04/assets/images/icons/city-15.svg"
            },
            "type": "Feature"
        },
        {
            "geometry": {
                "coordinates": [
                    -95.68901849999999,
                    39.0558235
                ],
                "type": "Point"
            },
            "properties": {
                "name": "Topeka",
                "draw_type": "symbol",
                "source": "city199",
                "image": "./Assignments/A04/assets/images/icons/city-15.svg"
            },
            "type": "Feature"
        },
        {
            "geometry": {
                "coordinates": [
                    -74.2107006,
                    40.6639916
                ],
                "type": "Point"
            },
            "properties": {
                "name": "Elizabeth",
                "draw_type": "symbol",
                "source": "city200",
                "image": "./Assignments/A04/assets/images/icons/city-15.svg"
            },
            "type": "Feature"
        },
        {
            "geometry": {
                "coordinates": [
                    -82.32482619999999,
                    29.6516344
                ],
                "type": "Point"
            },
            "properties": {
                "name": "Gainesville",
                "draw_type": "symbol",
                "source": "city201",
                "image": "./Assignments/A04/assets/images/icons/city-15.svg"
            },
            "type": "Feature"
        },
        {
            "geometry": {
                "coordinates": [
                    -104.9719243,
                    39.8680412
                ],
                "type": "Point"
            },
            "properties": {
                "name": "Thornton",
                "draw_type": "symbol",
                "source": "city202",
                "image": "./Assignments/A04/assets/images/icons/city-15.svg"
            },
            "type": "Feature"
        },
        {
            "geometry": {
                "coordinates": [
                    -121.2880059,
                    38.7521235
                ],
                "type": "Point"
            },
            "properties": {
                "name": "Roseville",
                "draw_type": "symbol",
                "source": "city203",
                "image": "./Assignments/A04/assets/images/icons/city-15.svg"
            },
            "type": "Feature"
        },
        {
            "geometry": {
                "coordinates": [
                    -96.8899636,
                    32.9756415
                ],
                "type": "Point"
            },
            "properties": {
                "name": "Carrollton",
                "draw_type": "symbol",
                "source": "city204",
                "image": "./Assignments/A04/assets/images/icons/city-15.svg"
            },
            "type": "Feature"
        },
        {
            "geometry": {
                "coordinates": [
                    -80.2706044,
                    26.271192
                ],
                "type": "Point"
            },
            "properties": {
                "name": "Coral Springs",
                "draw_type": "symbol",
                "source": "city205",
                "image": "./Assignments/A04/assets/images/icons/city-15.svg"
            },
            "type": "Feature"
        },
        {
            "geometry": {
                "coordinates": [
                    -73.5387341,
                    41.0534302
                ],
                "type": "Point"
            },
            "properties": {
                "name": "Stamford",
                "draw_type": "symbol",
                "source": "city206",
                "image": "./Assignments/A04/assets/images/icons/city-15.svg"
            },
            "type": "Feature"
        },
        {
            "geometry": {
                "coordinates": [
                    -118.781482,
                    34.2694474
                ],
                "type": "Point"
            },
            "properties": {
                "name": "Simi Valley",
                "draw_type": "symbol",
                "source": "city207",
                "image": "./Assignments/A04/assets/images/icons/city-15.svg"
            },
            "type": "Feature"
        },
        {
            "geometry": {
                "coordinates": [
                    -122.0310733,
                    37.9779776
                ],
                "type": "Point"
            },
            "properties": {
                "name": "Concord",
                "draw_type": "symbol",
                "source": "city208",
                "image": "./Assignments/A04/assets/images/icons/city-15.svg"
            },
            "type": "Feature"
        },
        {
            "geometry": {
                "coordinates": [
                    -72.6850932,
                    41.76371109999999
                ],
                "type": "Point"
            },
            "properties": {
                "name": "Hartford",
                "draw_type": "symbol",
                "source": "city209",
                "image": "./Assignments/A04/assets/images/icons/city-15.svg"
            },
            "type": "Feature"
        },
        {
            "geometry": {
                "coordinates": [
                    -122.2348431,
                    47.3809335
                ],
                "type": "Point"
            },